OPIS Truckstop ID,Truckstop Name,Address,City,State,Rack ID,Retail Price,Latitude,Longitude
9,KWIK TRIP #796,"I-94, EXIT 143 & US-12 & SR-21",Tomah,WI,420,3.28733333,44.0587262,-92.5278462
20,PILOT TRAVEL CENTER #1243,"I-8, EXIT 119 & SR-85",Gila Bend,AZ,930,3.899,26.6664753,-80.7168171
28,LITTLEFIELD EXPRESS #2,"I-540, EXIT 12 & US-71",Fort Smith,AR,645,3.399,35.3148086,-94.4016862
44,CIRCLE K #2612042,"I-35,  EXIT 271",Jarrell,TX,595,2.919,30.1755249,-85.6243147
46,PETRO STOPPING CENTER #348,"I-85,  EXIT 22 & CR-138",Shorter,AL,720,3.154,35.1810309,-107.9038246
75,Good 2 Go #709,US-50,Montrose,CO,810,3.424,44.5017725,26.0650507
77,OASIS TRAVEL PLAZA,US-13,Laurel,DE,243,3.229,36.3659234,-77.6747121
121,PETRO STOPPING CENTER #306,"I-10, EXIT 200",Eloy,AZ,930,3.474,35.5845032,-78.1468483
127,CIRCLE K #4700095,US-41,Henderson,KY,340,3.609,30.1755249,-85.6243147
135,LOVES TRAVEL STOP #766,"I-80, EXIT 27",Atkinson,IL,290,3.589,41.5092474,-112.0537895
147,SPEEDWAY #8039,"I-69, EXIT 234 & SR-67",Daleville,IN,375,3.624,39.7881233,-86.2407144
151,CUBBYS #2101,"I-80, EXIT 211 & SR-47",Gothenburg,NE,475,3.13233333,35.4243113,-83.3210658
159,PILOT TRAVEL CENTER #87,"I-10, EXIT 343",Jacksonville,FL,75,3.859,45.814934,-108.4177427
160,PILOT TRAVEL CENTERS #79,"I-12, EXIT 10 AT MILE 10",Denham Springs                          ,LA,600,3.23233333,31.4483685,-96.0788147
164,FLYING J TRAVEL PLAZA #650,"I-94, EXIT 15 B",Lake Station                            ,IN,365,3.809,44.4710928,-93.2946643
167,FLYING J TRAVEL PLAZA #653,RT 2 & I-65 EXIT 240,Hebron,IN,365,3.43566666,44.4710928,-93.2946643
184,SAPP BROS TRAVEL CENTER,"I-29 & I-80, EXIT 1B",Council Bluffs,IA,486,3.719,41.366671,-89.1521604
191,KUM & GO #0302,"I-35, EXIT 193 & SR 106",Clear Lake,IA,433,3.18566666,36.1329031,-95.9041032
195,PETRO STOPPING CENTER #311,"I-40 & I-55, EXIT 280",West Memphis,AR,435,3.36733333,35.5845032,-78.1468483
198,SINCLAIR,"I-76, EXIT 115",Atwood,CO,800,3.299,41.7791754,-107.1162507
199,PETRO STOPPING CENTER #366,"I-70, EXIT 252",Salina,KS,523,3.80566666,35.5845032,-78.1468483
203,PILOT TRAVEL CENTER #31,"I-80/94, EXIT 2",Highland,IN,365,3.829,30.7543348,-83.2734998
207,MARATHON,SR-32,Sardinia                                ,OH,300,3.56566666,44.8914036,-89.7748098
216,CIRCLE K #2721593,"I-10, EXIT 50",Ocean Springs,MS,715,3.41566666,30.1755249,-85.6243147
217,NORTH 9TH 24/7,"I-70, EXIT 252",Salina,KS,523,3.02566666,14.4371094,120.9961194
235,PILOT TRAVEL CENTERS #92,"I-75, EXIT 358",Ocala,FL,225,3.359,36.7223575,-84.1683036
243,SAVE,US-41 & SR-10,Lake Village,IN,399,3.179,45.1609039,17.4445188
248,Mardi Gras Truck Stop,"I-10, EXIT 236",New Orleans,LA,725,3.729,29.9826753,-90.0574941
250,GOLDEN OX TRUCK STOP,"I-70/US-40, EXIT 159 & US-183",Hays,KS,523,3.499,38.8960048,-99.317084
253,LOVES TRAVEL STOP #450,"I-40, EXIT 280 & I-55, EXIT 4",West Memphis,AR,435,3.32566666,41.5092474,-112.0537895
263,CASEYS #3956,I-94 EXIT 16,Bridgman,MI,465,3.559,38.1552716,-90.5498502
267,CORNER MARKET #117,SR-154 & SR-129,Dodge City,KS,357,3.399,33.8761095,35.5510882
269,PILOT TRAVEL CENTERS #24,"I-75, EXIT 15",Monroe                                  ,MI,325,3.299,33.5607721,-83.4783823
278,CARLISLE PLAZA,US-41,Carlisle,IN,510,3.499,38.9550726,-87.406219
281,CIRCLE K #4700065,"I-65, EXIT 76 & US-31",Taylorsville,IN,375,3.399,30.1755249,-85.6243147
289,LOVES TRAVEL STOP #173,"I-70, MM 209",Lawrence,KS,553,3.229,41.5092474,-112.0537895
292,PETES #56,US-169 & CR-5000,Cherryvale,KS,307,3.23233333,44.3090618,-79.1932633
293,LOVES TRAVEL STOP #176,"I-35, MILE MARKER 97",Matfield Green,KS,336,3.25566666,41.5092474,-112.0537895
304,FL Roberts,"I-91, EXIT 4",Springfield,MA,100,3.599,29.5916525,-81.6068759
309,QUIKTRIP #231,"I-635, EXIT 3",Kansas City,KS,400,3.199,38.4836631,-90.3047749
323,SAPP BROS TRAVEL CENTER,"I-80, EXIT 126",Ogallala,NE,475,3.46566666,41.366671,-89.1521604
326,FLYING J TRAVEL PLAZA #748,"I-15, EXIT 357",Willard                                 ,UT,835,3.749,35.0793683,-106.7457342
361,CIRCLE K #2726293,"I-295, EXIT 25",Jacksonville,FL,75,3.31566666,30.1755249,-85.6243147
372,GAS DEPOT,"I-94, EXIT 5",Hammond,IN,365,3.999,15.4136726,75.0669669
381,7-Eleven #41830,US-69 & US-135,Jacksonville,TX,630,2.91566666,57.6923124,11.9157135
387,Circle K #2709664,"I-8, EXIT 12",Yuma,AZ,930,3.489,30.1755249,-85.6243147
388,Pilot Travel Centers #14,"I-71, EXIT 131",Sunbury,OH,315,3.719,33.3206222,-84.777702
391,PILOT TRAVEL CENTERS #13,"I-71, EXIT 209",Seville,OH,305,3.699,35.8821946,-87.8010098
407,FUEL MART #641,"I-80 & I-280, EXIT 71",Perrysburg                              ,OH,550,3.499,41.5224717,-83.4642318
421,PETRO STOPPING CENTER #316,"I-40 & I-35, EXIT 127",Oklahoma City,OK,483,3.30233333,35.5845032,-78.1468483
424,E EXPRESS,"I-40, EXIT 166",Choctaw,OK,483,2.899,37.3774761,-79.2466817
442,WESTERN COOP,US-385 & SR-2,Alliance,NE,795,3.324,19.130097,72.8281723
455,MR FUEL #753,"I-95, EXIT 104 & SR-207",Ruther Glen,VA,180,3.26566666,30.4129168,-81.5714398
456,THE COUNTRY OASIS,US-24,Woodburn                                ,IN,370,3.399,42.8455465,-2.6641865
460,TRUCK STOP 44,I-20 EXIT 44,Gilbert,SC,135,3.079,33.8716534,-81.3890212
461,SPINX #271,"I-26, EXIT 145 & US-601",Orangeburg,SC,42,3.26233333,33.5407733,-80.92339
469,LOAF N JUG #750010,US-160 & SR-17,Alamosa,CO,803,3.259,39.6895801,-104.9409487
474,KEWANEE 1 STOP,"I-20, EXIT 169 & US-80",Toomsuba,MS,705,3.299,32.4256352,-88.4480423
483,ALLSUPS #2387,US-54/SR-136/SR-3 & US-64,Guymon,OK,585,2.97566666,34.7550262,-106.748909
489,EDDIES CORNER,US-87 & US-191,Moore,MT,815,3.749,46.9833002,-109.7454653
491,One9 #403,"I-75, EXIT 117",Heiskell,TN,405,2.999,39.5897318,-76.0654363
496,PILOT TRAVEL CENTERS #270,"I-40 & I-75, EXIT 374",Knoxville,TN,405,3.439,32.4508865,-95.2837293
523,CIRCLE K #2723322,"I-985, EXIT 20 & SR-60",Gainesville,GA,18,3.26566666,30.1755249,-85.6243147
525,FASTBREAK,US-45 ALT,West Point,MS,705,3.059,37.7228532,-122.45296
546,PLAZA 30,US-30,Wanatah,IN,365,3.499,18.4168456,-66.1888363
557,SAPP BROS TRAVEL CENTER,"I-80, EXIT 73",Peru,IL,290,3.389,41.366671,-89.1521604
572,PILOT TRAVEL CENTER #881,"I-69, EXIT 309A",Fort Wayne                              ,IN,370,3.899,43.1215756,-71.4808431
576,PETRO STOPPING CENTER #343,"I-10, EXIT 76",Egan,LA,600,3.624,35.1810309,-107.9038246
578,LOVES TRAVEL STOP #449,"I-84, EXIT 17",Troutdale,OR,935,3.779,41.5092474,-112.0537895
579,FLYING J TRAVEL PLAZA #764,"I-80, EXIT 104 & US-191",Rock Springs,WY,835,3.67066666,30.8118225,-97.6109688
599,Sapp Bros Travel Center,"I-80, EXIT 59 & SR-17J",Sidney,NE,475,3.50066666,41.366671,-89.1521604
628,KWIK FILL #227,"I-90,  EXIT 218",Geneva,OH,305,3.15233333,42.4537006,-75.064674
629,FLYING J #850,TCH-16,Edmonton,AB,80,4.39948962,33.9027672,-96.9448288
636,UNION 76,"I-5, EXIT 233 E",Albany,OR,935,3.379,34.2723839,-118.5018253
651,ONE9 #1366,"I-40, EXIT 126 & US-641",Holladay,TN,460,2.98566666,39.5897318,-76.0654363
659,FLYING J #869,HWY 2 SOUTH,Nanton,AB,50,4.39948962,33.9027648,-96.9448424
669,PETRO STOPPING CENTER #350,"I-10,  EXIT 4",Canutillo,TX,640,3.499,35.5845032,-78.1468483
680,TA EXPRESS SUMMIT,"I-29, EXIT 207 & US-12",Summit,SD,566,3.20566666,47.6595987,-90.7207494
689,FLYING EAGLE,"I-235, EXIT 4",Wichita,KS,570,3.499,45.3780487,-110.7464691
692,BP,US-63,Ottumwa,IA,489,3.399,51.507825,-0.134197
739,Arco #364420,US-23,Greenup,KY,255,3.649,45.9181327,10.8860953
748,QUIKTRIP #4231,US-85,Evans,CO,800,3.17233333,36.0917339,-95.921709
815,Kwik Trip #1508,"US-18/SR-151, EXIT 58",Barneveld,WI,420,3.489,44.0587262,-92.5278462
855,SPEEDWAY #7459,US-41 & SR-137,North Chicago,IL,293,3.379,39.7881233,-86.2407144
863,Ocean Fuel,US-301/SR-73,Sylvania,GA,195,3.499,4.8277789,31.6079353
906,PILOT TRAVEL CENTERS #429,"I-40, EXIT 280",West Memphis,AR,435,3.499,43.1217027,-71.4807373
908,CIRCLE K #2704888,"I-65, EXIT 246 & SR-119",Pelham,AL,615,3.46566666,30.1755249,-85.6243147
912,PETRO STOPPING CENTER #319,"I-20/59,  EXIT 100",Mc Calla,AL,615,3.12566666,35.5845032,-78.1468483
936,CASEYS #4254,"I-40, EXIT 129",Conway,AR,695,3.03233333,38.1552716,-90.5498502
970,CIRCLE K #2702885,"I-17/SR-60, EXIT 199A",Phoenix,AZ,930,3.39233333,30.1755249,-85.6243147
977,PILOT TRAVEL CENTER #328,"I-10, EXIT 17",Quartzsite,AZ,930,3.959,30.2942016,-91.9139529
981,STINKER #85,"I-15, EXIT 93",Blackfoot,ID,825,3.53233333,-51.8210807,-61.1981392
982,CIRCLE K #2701948,"I-8, EXIT 7 & SR-195",Yuma,AZ,900,3.56566666,30.1755249,-85.6243147
1042,Union 76,US-441 & SR-100A,Lake City,FL,75,3.56233333,34.2723839,-118.5018253
1043,ONE9 #1401,I-75 EXIT 414  & US-41,Lake City,FL,75,3.259,27.5282179,-82.5122422
1075,PILOT TRAVEL CENTER #68,"I-16 /SR-404, EXIT 51 & US-441",Dublin,GA,85,3.43233333,39.5226826,-83.8460009
1106,CIRCLE K #2705367,"I-20, EXIT 172",Thomson,GA,16,3.399,30.1755249,-85.6243147
1115,KWIK STAR #704,SR-57/SR-14,Parkersburg,IA,565,3.58233333,42.4620622,-92.2976419
1121,TRAVELERS OASIS,"I-84, EXIT 182",Eden,ID,787,3.799,39.9987235,-78.2356863
1136,PILOT TRAVEL CENTER #171,"I-74, EXIT 206",Oakwood,IL,280,3.399,29.8003085,-95.2671692
1140,CIRCLE K #4701398,"I-55, EXIT 82 & SR-104",Divernon,IL,280,3.499,30.1755249,-85.6243147
1149,PILOT TRAVEL CENTER #30,"I-70, EXIT 96",Greenfield,IN,375,3.959,40.4055264,-77.0093802
1151,SPEEDWAY #8061,"I-70, EXIT 115 & SR-109",Knightstown,IN,375,3.759,39.7881233,-86.2407144
1154,CIRCLE K #2704691,SR-71 & CR-214,Cedar Creek,TX,595,3.199,30.1755249,-85.6243147
1156,CIRCLE K #4700028,"I-74/US-421, EXIT 116 & SR-44",Shelbyville,IN,375,3.599,30.1755249,-85.6243147
1157,One9 #297,"I-70, EXIT 11 & SR-46",Terre Haute                             ,IN,510,3.43566666,36.0610362,-79.6617405
1163,SHORT STOP #13,US-54,Emporia,KS,553,2.839,43.648262,-116.2661076
1176,PILOT TRAVEL CENTERS #353,"I-75, EXIT 129",Georgetown,KY,410,3.20566666,43.1217027,-71.4807373
1179,PILOT TRAVEL CENTERS #399,"I-65, EXIT 105",Lebanon Junction,KY,415,3.609,39.6975708,-86.185134
1202,ONE9 #290,"I-95, EXIT 93 & SR-222",Perryville,MD,22,3.599,36.0610362,-79.6617405
1204,PETRO STOPPING CENTER #321,"I-70 & I-57, EXIT 159",Effingham,IL,574,3.549,35.5845032,-78.1468483
1208,D AVENUE FUEL PLAZA,US-131,Kalamazoo,MI,465,3.499,42.3769125,-85.6513022
1217,KWIK TRIP #250,"I-90, EXIT 179",Austin,MN,515,3.374,44.0587262,-92.5278462
1218,CASEYS #3658,SR-210,Pillager,MN,522,3.299,33.672699,-84.2872306
1240,TEMP STOP #103,US-65,Sedalia,MO,400,3.199,35.9791141,-83.8944175
1251,MAPCO #3009,US-72,Corinth,MS,435,3.154,10.5050375,76.2279653
1304,LOVES TRAVEL STOP #667,"I-85, EXIT 152",Mebane,NC,65,3.94733333,41.5092474,-112.0537895
1315,CIRCLE K #2720218,US-421 BUS & US-15/US-501/US-1,Sanford,NC,177,3.08233333,29.5043588,-98.3685474
1325,SCOTCHMAN #3303,US-421 & US-74,Wilmington,NC,245,3.629,-30.465,152.8344444
1326,SPEEDWAY #7949,US-301/US-264 ALT & CR-1674,Wilson,NC,205,3.199,39.7881233,-86.2407144
1333,PUMP & PANTRY #15,US-30,Grand Island,NE,330,3.30733333,37.3165039,-78.4547175
1340,BORDENTOWN VALERO,"NJ TNPK, EXIT 7 & US-206",Bordentown,NJ,230,3.499,40.1223152,-74.7072244
1342,Delta,"I-80, EXIT 47B",Fairfield,NJ,115,3.20233333,33.3926893,-95.6749486
1348,GLOBAL,SR-73,Palmyra,NJ,150,3.359,55.702215,12.5592485
1356,LOVES TRAVEL STOP #257,"I-40 & HORIZON, EXIT 79",Milan,NM,580,3.59066666,41.5092474,-112.0537895
1372,PILOT TRAVEL CENTER #469,"I-77, EXIT 101 & SR-627",Canton,OH,249,3.62233333,29.8003085,-95.2671692
1376,FUEL MART #782,"I-75, EXIT 118",Lima                                    ,OH,411,3.08566666,36.8089998,-119.7712136
1384,SUNOCO,"I-80/I-90, EXIT 13 & US-20ALT/SR-15",Montpelier,OH,550,3.41566666,42.5946073,-82.7791641
1391,ONCUE EXPRESS #2045,"I-35, EXIT 203 & SR-15",Billings,OK,500,3.21566666,36.5964729,-94.7551679
1404,ONE9 #339,"I-74, EXIT 4 & SR-63",Covington,IN,375,3.26233333,36.0610362,-79.6617405
1414,SAC SHOP #507,"I-70, EXIT 12/161",Breezewood                              ,PA,14,4.099,41.0157012,28.9724899
1428,CIRCLE K #4702408,"I-65, EXIT 168 & SR-38/SR-25",Lafayette,IN,375,3.43233333,30.1755249,-85.6243147
1432,KWIK FILL #259,"I-81, EXIT 57",Mechanicsburg                           ,PA,70,4.049,42.953462,-78.8687221
1444,PILOT TRAVEL CENTERS #346,"I-20, EXIT 92 & US-601",Lugoff,SC,135,3.43233333,43.1217027,-71.4807373
1445,PILOT TRAVEL CENTERS #402,"I-80, EXIT 367",Cheyenne,WY,795,3.709,43.1217027,-71.4807373
1447,HOT SPOT #3005,US-221,Chesnee,SC,210,3.199,42.6927166,23.3215633
1453,EXPRESS STOP,US-278/SR-101/SR-6 & SR-113,Rockmart,GA,193,3.319,51.565269,-0.1341948
1455,PETRO FLORENCE,"I-95, EXIT 169",Florence,SC,46,3.32566666,34.2672828,-79.7332963
1461,CIRCLE K #2705370,"I-26, EXIT 15 & US-176",Inman,SC,210,3.099,30.1755249,-85.6243147
1464,CIRCLE K #2723254,"I-20, EXIT 55 & SR-6",Lexington,SC,135,3.199,30.1755249,-85.6243147
1470,CIRCLE K #2705348,US-1,Beech Island,SC,135,3.159,30.1755249,-85.6243147
1487,ROADRUNNER MARKET #6019,"I-81, EXIT 36 NORTH",Greeneville                             ,TN,405,3.499,36.7146216,-81.939716
1492,MAPCO #3538,"I-24, EXIT 174",Chattanooga,TN,285,2.899,10.5050375,76.2279653
1507,CIRCLE K #4703941,"I-55, EXIT 5A",Memphis,TN,435,3.189,30.1755249,-85.6243147
1516,LOVES TRAVEL STOP #261,I-27 EXIT 116,Amarillo,TX,585,3.23233333,41.5092474,-112.0537895
1531,CircleK #4702365,"I-74, EXIT 112 & SR-9",Shelbyville,IN,375,3.509,59.2378481,15.123135
1533,YESWAY #1157,US-62,Brownfield,TX,700,2.99233333,39.5096749,-91.5288325
1546,SHELL,"I-35, EXIT 86 & SR-85",Dilley,TX,740,3.099,-25.2864234,-57.5711678
1548,TOOT N TOTUM #107,US-287,Dumas,TX,585,3.03233333,35.1639301,-101.8491722
1552,STRIPES #40911,US-59 & SR-16,Freer,TX,625,3.099,52.437075,-6.9618733
1555,SEIBERT TRAVEL PLAZA,"I-70, EXIT 405 & SR-59",Seibert,CO,800,3.499,39.2920555,-102.8754484
1562,I MART #108,"I-40, EXIT 108",Wildersville                            ,TN,435,3.099,30.9579094,50.6371629
1567,KUM & GO #4110,"I-235, EXIT 11",Des Moines,IA,320,3.02733333,36.1329031,-95.9041032
1582,LOVES TRAVEL STOP #250,I-40 EXIT 60,Amarillo,TX,585,3.314,41.5092474,-112.0537895
1590,ROAD RANGER #240,"I-80 & I-94, EXIT 15-A",Lake Station,IN,365,3.559,42.1268341,-74.7052619
1596,FLYING J #305,"I-40, EXIT 39",Jamestown,NM,580,3.44233333,49.5702879,-97.189841
1599,ONVO TRAVEL PLAZA,"I-81, EXIT 10",Mc Graw,NY,220,3.439,42.5878634,-76.1302114
1602,CIRCLE K #2723387,US-98,Beaumont,MS,620,3.56566666,29.5043588,-98.3685474
1610,TA BALTIMORE TRAVEL CENTER,"I-95, EXIT 57",Baltimore                               ,MD,22,4.759,39.27876,-76.547316
1621,CIRCLE K #2709337,"I-65, EXIT 262B",Birmingham                              ,AL,615,3.489,30.1755249,-85.6243147
1622,RACEWAY #6973,US-380 & SR-114/SR-101,Bridgeport,TX,630,2.78233333,39.3384041,-84.3145535
1623,SAPP BROS TRAVEL CENTER,"I-70 & I-270, EXIT 278",Commerce City,CO,800,3.389,41.366671,-89.1521604
1625,PILOT TRAVEL CENTERS #60,"I-26, EXIT 159",Bowman                                  ,SC,42,3.43233333,37.0597044,-113.5819528
1632,PILOT TRAVEL CENTERS #266,"I-10, EXIT 139 & SR-292",Las Cruces                              ,NM,640,3.19066666,43.1217027,-71.4807373
1634,PILOT TRAVEL CENTERS #40,"I-94, EXIT 322",Oak Creek,WI,444,3.889,38.9396365,-92.7743633
1644,ALLSUPS CONVENIENCE STORE #2414,"I-20, EXIT 235",Roscoe,TX,575,2.929,32.9147202,-105.9463365
1647,SPEEDWAY #8305,US-41 & SR-312,Hammond,IN,290,3.76566666,39.7881233,-86.2407144
1653,ROAD RANGER #187,"I-55, EXIT 289",Chicago,IL,520,3.569,45.0262971,-76.5714163
1661,CHEVRON,"I-20, EXIT 101 & SR-151",Calhoun,LA,590,3.159,51.5065602,-0.0267079
1671,LOVES TRAVEL STOP #412,"I-95, EXIT 77",Dunn,NC,205,3.699,41.5092474,-112.0537895
1720,TOOT N TOTUM #120,US-54 & S WESTERN AVE,Liberal,KS,585,3.01566666,35.1639301,-101.8491722
1753,PWI #169,"I-35/US-77, EXIT 359 & CR-1304",Abbott,TX,765,2.899,-6.2336662,106.8866389
1773,M-46 AUTO TRUCK PLAZA,"US-131, EXIT 120 & SR-46",Howard City,MI,344,3.199,40.6202682,-116.9153115
1791,PILOT TRAVEL CENTERS #257,"I-20, EXIT 126 & FM-1788",Midland                                 ,TX,710,3.56566666,43.1217027,-71.4807373
1807,LOVES TRAVEL STOP #229,I-40 EXIT 96 & SR-207,Panhandle,TX,585,3.314,41.5092474,-112.0537895
1810,KENT KWIK #804,US-83,Perryton,TX,585,2.999,32.4130244,-100.8597663
1832,CORNER FUEL CENTER,US-49,Hattiesburg,MS,620,3.299,31.1878038,-89.2511202
1849,Stripes #42457,US-67/US-277,San Angelo,TX,740,3.244,52.437075,-6.9618733
1858,FLYING J TRAVEL PLAZA #737,"I-10, EXIT 583",San Antonio                             ,TX,740,3.224,44.4710928,-93.2946643
1860,MR FUEL #278,"I-75/71, EXIT 175 & SR-338",Walton,KY,300,3.019,39.6968169,-86.188362
1861,PETRO STOPPING CENTER #315,"I-40, EXIT 66",Kingman,AZ,910,3.899,35.5845032,-78.1468483
1874,CIRCLE K #2744529,US-175,Seagoville,TX,630,2.95066666,30.1755249,-85.6243147
1879,HOLIDAY STATIONSTORE #3552,"I-35, EXIT 81 & SR-70",Lakeville,MN,448,3.549,44.3558369,-89.0814385
1889,TOOT N TOTUM #105,US-54 & US-287,Stratford,TX,585,2.96566666,35.1639301,-101.8491722
1894,CIRCLE K #2741544,"I-37 & SR-72, EXIT 69",Three Rivers,TX,747,3.06566666,30.1755249,-85.6243147
1897,YESWAY #1077,"I-20/US-84, EXIT 278",Tye,TX,575,2.87566666,31.7886263,-97.5810299
1905,LUCKY TRUCK STOP,US-82,Whitesboro                              ,TX,630,2.88566666,31.1573309,-97.3245268
1914,LOVES TRAVEL STOP #792,"I-70, EXIT 160",Green River,UT,835,3.709,41.5092474,-112.0537895
1921,BELL TRUCK STOP,"I-80, EXIT 146",Park City,UT,835,3.45233333,31.1573309,-97.3245268
1923,SCENIC QUIK STOP,"I-70, EXIT 54 & US-89",Salina,UT,835,3.459,37.7123723,-121.7238186
1930,CASEYS #3058,"I-35, EXIT 19 & US-160 E",Wellington,KS,570,3.299,36.0745639,-78.5871729
1934,CIRCLE K #2723710,"I-77, EXIT 24",Austinville,VA,185,3.24066666,30.1755249,-85.6243147
1951,CIRCLE K #2723713,"I-81, EXIT 205",Staunton,VA,185,3.38566666,29.5043588,-98.3685474
1953,FAS MART #3555,"I-64, EXIT 136 & US-15",Gordonsville,VA,180,3.699,37.2671814,-76.6824293
1954,Joe's Kwik Mart #8409,US-58 & CR-645,Suffolk,VA,130,3.03233333,32.7443667,-80.0380847
1956,PILOT TRAVEL CENTER #4642,"I-81, EXIT 291",Toms Brook,VA,60,3.659,43.1215756,-71.4808431
1958,SPEEDWAY #4618,"I-81 & I-77, EXIT 77",Wytheville,VA,185,3.41233333,33.9711279,-118.4597105
1960,MAPLEWOOD IRVING,"I-89, EXIT 7",Montpelier                              ,VT,170,3.699,44.7350181,-63.7914816
1962,SUPER QUIK,"I-64, EXIT 172 & SR-1/SR-7",Grayson,KY,255,3.799,38.7587428,-82.9903358
1976,One9 #963,"I-90, EXIT 276",Spokane                                 ,WA,970,3.989,39.5897318,-76.0654363
1983,KWIK TRIP #427,"US-53, EXIT 110 & SR-40",Bloomer,WI,295,3.41566666,44.0587262,-92.5278462
1985,Camp Douglas BP,"I-90 & I-94, EXIT 55",Camp Douglas                            ,WI,420,3.154,43.9187995,-90.2602556
2002,KWIK TRIP #222,US-53/US-2,Superior,WI,334,3.339,44.0587262,-92.5278462
2009,KWIK TRIP #139,"I-43, EXIT 120 & CR-V/CR-OK",Sheboygan,WI,444,3.29066666,44.0587262,-92.5278462
2040,Fast Stop Travel Centers #1133,"I-25, EXIT 126 & US-18/20",Douglas,WY,790,3.499,39.2520993,-112.1097535
2041,PINE BLUFFS SINCLAIR,"I-80, EXIT 401 & US-30",Pine Bluffs,WY,795,3.699,41.1773052,-104.076233
2044,One9 #1251,"I-80, EXIT 173",Wamsutter,WY,795,3.499,39.5897318,-76.0654363
2074,STRIPES #40522,"I-10, EXIT 550",San Antonio,TX,740,3.059,52.437075,-6.9618733
2076,ALLSUPS CONVENIENCE STORE #2159,US-283 BUS/US-277 BUS & SR-422,Seymour,TX,770,3.299,35.9755941,-105.3371044
2078,ALLSUPS CONVENIENCE STORE #2366,US-84 & CR-3300,Slaton                                  ,TX,700,2.969,35.9755941,-105.3371044
2084,Main Street Market #112,"I-20, EXIT 73",Wickett,TX,710,2.879,40.7616813,-86.0476365
2087,LWS TRUCK STOP,SR-30,Logan,UT,835,3.42566666,33.7900821,-118.2141758
2088,FLYING J TRAVEL PLAZA #773,"I-70, EXIT 40",Richfield                               ,UT,835,3.699,30.8118225,-97.6109688
2089,FLYING J TRAVEL PLAZA #774,"I-84, EXIT 7",Snowville                               ,UT,835,3.749,30.8118225,-97.6109688
2115,KWIK TRIP #838,SR-23/SR-33,Reedsburg,WI,420,3.194,44.0587262,-92.5278462
2125,BIG D #44,"I-80, EXIT 311 & SR-130",Laramie,WY,795,3.249,44.0707907,-103.1707849
2152,SPEEDWAY #4709,"I-90, EXIT 102",Fairmont,MN,425,3.299,33.9705283,-118.4594933
2167,PILOT TRAVEL CENTERS #134,"I-94, EXIT 171 (CR 75)",Saint Cloud,MN,451,3.28733333,39.6934074,-86.1906133
2182,PILOT TRAVEL CENTER #4649,"I-64 & I-81, EXIT 205",Raphine,VA,185,3.659,43.1215756,-71.4808431
2194,A AND A TRUCKSTOP,US-35 & CR-41,Jackson,OH,315,3.799,51.0911426,1.0150838
2196,Certified Oil #400410,I-76 EXIT 43,Ravenna,OH,249,3.31566666,41.1203323,-80.7673744
2204,NATURAL BRIDGE SHELL,US-278 & SR-5,Lynn,AL,615,3.68233333,34.0860338,-87.5945866
2209,Roadrunner #471,"I-40/US-65, EXIT 142 & SR-365",North Little Rock,AR,695,3.03233333,32.7324618,-114.6357499
2219,PILOT TRAVEL CENTER #66,"I-85, EXIT 129",Braselton,GA,16,3.27233333,38.2394606,-86.3629347
2227,SPEEDWAY #7448,SR-59,Naperville,IL,293,3.299,39.7881233,-86.2407144
2231,QUIKTRIP #605,"I-270, EXIT 33",Saint Louis,MO,540,2.899,36.0891156,-95.9573049
2267,Circle K #4703917,"I-65, EXIT 112 & SR-25",Cross Plains,TN,460,2.949,30.1755249,-85.6243147
2283,CIRCLE K #2707321,SR-60,Bartow,FL,225,3.52233333,30.1755249,-85.6243147
2287,SAC SHOP #511,"I-76/I-70, EXIT 146 & I-99/US-220 EXIT 1",Bedford,PA,14,4.099,41.0157012,28.9724899
2306,SCOTCHMAN #3894,"I-77, EXIT 73 & SR-901",Rock Hill,SC,210,3.079,44.5837818,-87.8864887
2310,MAPCO #3686,"I-24, EXIT 175",Chattanooga,TN,285,2.889,10.5050375,76.2279653
2311,SHELL,"I-24 & EPPS MILL RD, EXIT 89",Christiana                              ,TN,460,3.13233333,-25.2864234,-57.5711678
2331,PINNERS POINT,SR-135,Portsmouth,VA,130,3.499,35.0095418,-83.8487935
2336,FLYING J TRAVEL PLAZA #754,"I-77 & I-81, EXIT 77",Wytheville,VA,185,3.549,30.8118225,-97.6109688
2340,RSTORE #4478,SR-8 & SR-13,Prentice,WI,395,3.039,45.1062265,-88.0333386
2557,PWI #106,"I-30, EXIT 77B",Royse City,TX,630,2.899,-6.2336662,106.8866389
2602,PILOT TRAVEL CENTERS #9,"I-75, EXIT 36",Franklin,OH,407,3.35233333,42.4979247,-73.6745975
2626,WEST END SINCLAIR,"I-80, EXIT 211",Rawlins,WY,838,3.319,43.6216179,-116.2193473
2629,PILOT TRAVEL CENTERS #253,"I-295 & NJ TRNPK,  EXIT 2B",Penns Grove,NJ,243,3.989,43.1217027,-71.4807373
2635,FLYING J #584,"I-5, EXIT 278",Aurora,OR,935,3.859,38.7907572,-112.076787
2640,LITTLE NASHVILLE,"I-64, EXIT 50 & SR-127",Nashville,IL,540,3.399,34.7528645,-86.2310953
2761,PONY EXPRESS SERVICE CENTER,US-36 & SR-148,Hanover,KS,316,2.95566666,39.8413629,-96.8601988
2764,LOVES TRAVEL STOP #046,US-64/54 & SR-94,Hooker,OK,585,3.56233333,41.5092474,-112.0537895
2765,LOVES TRAVEL STOP #023,US-50 & US-287,Lamar,CO,525,3.46233333,41.5092474,-112.0537895
2772,PILOT TRAVEL CENTERS #29,"I- 80, EXIT 144; I-69, EXIT 357",Fremont                                 ,IN,465,3.899,33.3206445,-84.7772622
2779,Stinker #121,I-84 & EXIT 208,Heyburn,ID,787,3.56066666,-51.8210807,-61.1981392
2788,JIFFY MART #451,"I-91, EXIT 17 & SR-302",Wells River,VT,39,3.569,44.4951942,-71.5749802
2805,Fast Stop Travel Centers #1145,"I-15,  EXIT 31",Downey,ID,825,3.799,39.2520993,-112.1097535
2811,KWIK FILL #22,"I-90, EXIT 40 & SR-34/SR-31",Weedsport,NY,220,3.899,40.4201654,-78.4503823
2817,Chevron #382354,"I-5/US-12, EXIT 72",Chehalis,WA,977,4.299,51.5065602,-0.0267079
2864,KUM & GO #0493,I-49 BUS/SR-59,Neosho,MO,535,3.059,36.1329031,-95.9041032
2875,CIRCLE K #2744138,"I-25, EXIT 101 & US-50/SR-47",Pueblo,CO,803,3.399,30.1755249,-85.6243147
2883,PILOT TRAVEL CENTER #293,"I-75, EXIT 341 & CR-484",Ocala                                   ,FL,140,3.41233333,29.8003085,-95.2671692
2889,MOULTON COWBOYS,SR-157,Moulton                                 ,AL,615,3.099,34.4802052,-87.2730373
2891,PETRO STOPPING CENTER #338,"I-80, EXIT 21",Sparks,NV,966,3.949,35.5845032,-78.1468483
2910,FLYING J TRAVEL PLAZA #685,"I-29 & I- 94, EXIT 349",Fargo                                   ,ND,341,3.569,44.4710928,-93.2946643
2915,TP TRUCK STOP,"I-15, EXIT 80",Fort Hall                               ,ID,825,3.519,3.5782977,32.0744431
2922,LOVES TRAVEL STOP #210,"I-40, EXIT 158",Albuquerque,NM,580,3.52066666,41.5092474,-112.0537895
2923,LOVES TRAVEL STOP #435,"I-95, EXIT 104 & SR-207",Ruther Glen,VA,180,3.611,41.5092474,-112.0537895
2924,HWY 190 FUEL STOP,US-190,Jasper                                  ,TX,610,3.13233333,39.8569559,-75.3416057
2926,EXIT 77 TRAVEL PLAZA,"I-81, EXIT 77 & SR-39",Harrisburg,PA,70,3.499,40.355803,-76.727713
2929,TA EXPRESS STEELE,"I-94, EXIT 200 & SR- 3",Steele,ND,390,3.599,46.8616166,-99.9166886
2935,CIRCLE K #2726163,"I-295, EXIT 22",Jacksonville,FL,75,3.299,29.5043588,-98.3685474
2937,FLYING J TRAVEL PLAZA #664,"I-75, EXIT 171",Walton,KY,300,3.08566666,35.0793683,-106.7457342
2956,PILOT TRAVEL CENTERS #275,"I-85, EXIT 39 I-77, EXIT 13",Charlotte,NC,46,3.55233333,39.6934074,-86.1906133
2967,PETRO STOPPING CENTER #317,"I-57, EXIT 71",Perrysburg,OH,550,3.78566666,35.5845032,-78.1468483
2968,E-Z MART #4460,"I-20,  EXIT 124",Monroe,LA,719,3.129,35.9585278,-77.5677963
2977,DISCOUNT FUEL,"I-90, EXIT 150 & SR-73",Kadoka,SD,506,3.229,-28.4167422,151.0781778
2982,CIRCLE K #2723726,"I-59/I-20, EXIT 52 & US-11/US-43/SR-7",Knoxville,AL,705,3.089,30.1755249,-85.6243147
3003,CHEVRON,"I-20, EXIT 186",Delta                                   ,LA,760,2.994,51.5065602,-0.0267079
3008,BUSY BEE,"I-10, EXIT 283 & US-129",Live Oak,FL,10,3.779,38.5891849,-122.4324499
3030,Mr Ts Riverside,US-412,Cardwell                                ,MO,435,3.199,33.7633045,-116.7665899
3086,SPEEDWAY #4638,US-29,Madison Heights,VA,185,3.49566666,33.9710589,-118.4596589
3093,RSTORE #4488,US-51,Merrill,WI,395,3.24066666,45.1062265,-88.0333386
3118,MOBIL,"I-87, EXIT 42 & US-11",Champlain,NY,39,3.799,52.4920032,13.4868744
3138,TA EXPRESS #6264,"I-70, EXIT 26 & US-50",Grand Junction,CO,800,4.049,51.9659189,6.0208372
3148,YESWAY #1038,US-60 & SR-86,Neosho,MO,307,3.059,31.7886263,-97.5810299
3155,QUIK MART #18,US-72/SR-157,Tuscumbia                               ,AL,615,3.00733333,36.8398257,-84.4806054
3163,QUIKTRIP #71,"I-44, EXIT 238",Tulsa,OK,560,3.039,39.2682593,-94.4524541
3164,QUIKTRIP #102,"I-44, EXIT 222A",Tulsa,OK,560,3.039,36.129261,-96.005979
3165,LOVES TRAVEL STOP #213,"I-35, EXIT 211",Tonkawa,OK,500,3.584,41.5092474,-112.0537895
3167,JASPER FOOD MART,US-78,Jasper,AL,615,3.229,32.478251,-80.9723411
3171,One9 #265,"I-40, EXIT 287 & SR-136",Cookeville,TN,405,3.084,39.5897318,-76.0654363
3176,BP,US-6 & SR-15,New Paris                               ,IN,365,3.65733333,51.507825,-0.134197
3179,MR FUEL #1020,"I-80 & I-94, EXIT 15B",Lake Station,IN,365,3.56566666,36.1265919,43.9705384
3215,SHELL TRUCKSTOP,"I-4, EXIT 44",Polk City,FL,225,3.449,-27.3223636,152.9869615
3216,MAXS #124,"I-24, EXIT 86 & US-41",Oak Grove,KY,460,3.04233333,40.0527772,-78.6259616
3221,Pilot #1440,"US-67, EXIT 55 & US-64/US-167 & SR-367",Bald Knob,AR,695,3.399,36.1003003,-80.2603349
3226,ONE9 #245,"I-81, EXIT 77 & SR-39",Harrisburg,PA,70,3.609,39.5897318,-76.0654363
3230,STRIPES #40815,US-281 & US-285,Falfurrias,TX,625,3.299,52.437075,-6.9618733
3281,AMERICAN TRUCK PLAZA,I-80 EXIT 215 & SR-254,Milton,PA,138,3.799,28.3031609,-81.419136
3284,CASEYS #4390,"I-49/US-71, EXIT 77 & US-160",Lamar,MO,416,3.199,38.1552716,-90.5498502
3297,SAPP BROS TRAVEL CENTER,"I-80, EXIT 370",Cheyenne,WY,795,3.70066666,41.366671,-89.1521604
3326,MIRABITO #61,"I-81, EXIT 32",Central Square,NY,12,4.299,38.5775545,14.8403202
3349,QUEEN CITY TRUCK STOP,"I-20 & I-59, EXIT150",Meridian,MS,705,2.939,33.26012,-94.1538674
3401,POPS Mart #333,"I-77, EXIT 48 & SR-200",Winnsboro,SC,46,3.09066666,11.0297446,76.0373524
3418,Par Mar Store #164,"I-79, EXIT 105 & CR-7",Jane Lew,WV,165,3.999,38.1956173,-81.4911999
3422,PWI #167,"I-10, EXIT 601",Seguin,TX,740,2.889,-6.2336662,106.8866389
3435,PWI #168,"I-35, EXIT 266 & SR-195",Georgetown,TX,740,2.799,-6.2336662,106.8866389
3475,PILOT TRAVEL CENTERS #56,"I-85, EXIT 63",Kannapolis,NC,46,3.499,34.5089581,-81.8581853
3477,CIRCLE K #4707404,"I-91, EXIT 7",Springfield,VT,170,3.699,30.1755249,-85.6243147
3479,FAST MARKET #4550,"I-75/SR-401, EXIT 136 & US-341",Perry,GA,85,3.099,43.8584025,25.9738755
3493,CIRCLE K #2723675,"I-75, EXIT 290 & SR-20",Cartersville,GA,18,3.08566666,30.1755249,-85.6243147
3519,PILOT TRAVEL CENTERS #431,"I-10, EXIT 873",Orange,TX,610,3.309,43.1217027,-71.4807373
3522,SUNMART #308,US-59,Livingston                              ,TX,610,2.859,34.8764153,128.731491
3536,PETRO STOPPING CENTER #307,I-40 EAST & S LAKESIDE Dr,Amarillo,TX,585,3.279,35.5845032,-78.1468483
3539,Bigs 211,"I-10, EXIT 620 & SR-123",Seguin,TX,740,3.099,30.5315512,-98.2127998
3585,CHEVRON,"I-80, EXIT 129",Lovelock,NV,966,3.499,51.5065602,-0.0267079
3588,BINGO TRUCK STOP,"I-10, EXIT 829 & SR-124",Winnie                                  ,TX,610,2.999,29.8329729,-94.3830246
3608,FUEL MART #787,"I-57, EXIT 212 & US-36",Tuscola,IL,280,3.199,36.8089998,-119.7712136
3614,PILOT TRAVEL CENTERS #35,"I-80/90, EXIT 72 & US-31",South Bend                              ,IN,465,3.799,41.7360031,-86.3367817
3616,PILOT TRAVEL CENTERS #15,"I-75, EXIT 210",Toledo,OH,550,3.77233333,42.066446,-72.1076922
3619,ROAD RANGER #141,"I-70, EXIT 23",Brazil,IN,375,3.659,45.0276605,-76.5692544
3678,TIMES MARKET #299,US-281 BUS,Alice,TX,625,3.099,52.9898822,-2.1361959
3688,SPEEDWAY #2314,"I-94, EXIT 243 & SR-29",New Baltimore,MI,342,3.559,15.4428181,120.7372074
3707,SPEEDWAY #4704,"I-90, EXIT 154",Albert Lea,MN,425,3.299,33.9706292,-118.4593366
3718,SPEEDWAY #4706,"I-90, EXIT 265",Chamberlain,SD,455,3.299,33.9706222,-118.4593314
3728,PLAZA 23 TRUCK STOP,"I-787, EXIT 2",Albany,NY,12,3.799,42.6345753,-73.7548755
3759,EXXON,US-67 & SR-18,Newport,AR,695,4.13233333,33.0419332,-97.044021
3767,SIMMONS TRAVEL CENTER,"I-95, EXIT 8 & US-301",Emporia,VA,180,3.099,36.6645301,-77.5540112
3774,SINCLAIR,"I-70, EXIT 438",Burlington                              ,CO,796,3.889,41.7791754,-107.1162507
3817,FAST MARKET,"I-25, EXIT 158",Colorado Springs,CO,803,3.159,38.0513995,23.8005934
3868,SHORE STOP #279,US-13,Greenwood,DE,194,3.239,38.6464284,-75.6250239
3907,SUNOCO,US-46 & SR-93,Palisades Park,NJ,105,3.279,42.5946073,-82.7791641
3927,MICCOSUKEE SERVICE PLAZA,"I-75, EXIT 49 & SR-84",Fort Lauderdale                         ,FL,95,3.66566666,26.1753427,-80.8550063
3946,Fast Lane,US-24 & US-63,Moberly,MO,310,3.469,52.1756259,-106.5586191
3949,SUNSTOP #337,"I-10/SR-8, EXIT 303 & US-441",Lake City,FL,75,3.699,47.5220363,12.2579034
3956,CIRCLE K #2707451,US-27/SR-25 & SR-70,Lake Placid,FL,225,3.399,30.1755249,-85.6243147
3964,SPEEDWAY #6604,"I-94, EXIT 66",Mattawan,MI,465,3.489,33.9599524,-118.4519645
3970,EXXON - Pilot #1293,"I-30, EXIT 61",Garland,TX,630,2.84233333,33.41357,-96.941159
3973,LOVES TRAVEL STOP #205,"I-35 & I-44, EXIT 137",Oklahoma City,OK,483,3.319,41.5092474,-112.0537895
3974,LOVES TRAVEL STOP #201,I-40 EXIT 41,Elk City,OK,483,3.12566666,41.5092474,-112.0537895
3975,SUNSTOP #334,"I-10, EXIT 335 & SR-121",Macclenny,FL,75,3.459,47.5220363,12.2579034
3979,PETRO GARY 369,"I-80 & I-94, EXIT 9",Gary,IN,365,3.83066666,41.5622855,-87.3538206
4006,MISSILE MART #1,US-167 & SR-7,El Dorado,AR,635,3.499,32.3799671,-106.4836462
4025,BP,"I-85, EXIT 21  & US-178",Anderson,SC,30,2.909,51.507825,-0.134197
4035,PILOT TRAVEL CENTER #430,"I-40,  EXIT 84",Russellville,AR,695,3.375,43.1215756,-71.4808431
4063,STUCKEY'S,"I-59, EXIT 67 & US-49",Hattiesburg,MS,620,2.999,31.3593377,-89.3499651
4101,E-Z MART #4411,HIGHWAY 69 & COBBLESTONE DR,Pryor,OK,560,3.099,35.9585278,-77.5677963
4115,QUIKTRIP #707,"I-85 , EXIT 96",Atlanta,GA,18,3.34066666,36.0891156,-95.9573049
4156,PETRO STOPPING CENTER #305,"I-10, EXIT 582",San Antonio,TX,740,3.20733333,35.5845032,-78.1468483
4161,EL CHEAPO,I-95 & EXIT 76,Midway                                  ,GA,195,3.52566666,32.0515924,-81.1524526
4164,CIRCLE K #2723897,"I-75, EXIT 138",Thomasville,GA,20,3.23566666,29.5043588,-98.3685474
4172,FLYING J TRAVEL PLAZA #639,"I-90, EXIT 2",Post Falls,ID,970,3.76233333,30.8118225,-97.6109688
4179,CIRCLE K #2705352,"I-95/SR-405, EXIT 109 & SR-30/SR-21",Port Wentworth                          ,GA,195,3.099,30.1755249,-85.6243147
4187,FLYING J TRAVEL PLAZA #632,"I-75, EXIT 320",Resaca,GA,285,3.29566666,44.4710928,-93.2946643
4193,TIGER MART #63,"I-20, EXIT 454",Grand Prairie,TX,630,3.599,16.7251766,98.5950612
4199,PWI #574,"I-70, EXIT 193/US-40",Bunker Hill,KS,357,2.959,-6.2336662,106.8866389
4204,PILOT TRAVEL CENTERS #415,"I-59, EXIT 4",Rising Fawn,GA,285,3.859,43.1217027,-71.4807373
4211,FLYING J #513,"I-15, EXIT 1",Jean,NV,910,3.73233333,38.7909187,-112.0764789
4222,Circle K #4703906,"I-24, EXIT 24 & SR-49",Pleasant View,TN,460,2.899,30.1755249,-85.6243147
4223,TA PEMBROKE TRAVEL CENTER,"I-90, EXIT 48A",Corfu,NY,38,3.939,36.679012,-87.4039426
4227,LOVES TRAVEL STOP #203,"I-40, EXIT 140",Oklahoma City,OK,483,3.35566666,41.5092474,-112.0537895
4233,QUIKTRIP #7220,"I-20, EXIT 8",Shreveport,LA,745,2.89233333,36.0891156,-95.9573049
4239,SPEEDWAY #8256,"I-64, EXIT 94 & SR-1958 & US-60",Winchester,KY,410,2.92233333,39.7881233,-86.2407144
4241,EXXON,"I-285, EXIT 53",Conley,GA,18,3.999,33.0419332,-97.044021
4267,CONOCO,US-30 & SR-41,Gap,PA,160,3.799,40.8415679,-115.7522046
4292,KUM & GO #0032,"I-80/US-6, EXIT 155 & SR-117",Colfax,IA,320,3.08233333,36.1329031,-95.9041032
4301,TIGER DISCOUNT TRUCKSTOP,"I-94, EXIT 64 & I-94 BUS",Dickinson,ND,807,3.51566666,46.8861024,-102.7396163
4332,PILOT TRAVEL CENTER #468,"I-57, EXIT 283 & US-24",Gilman,IL,280,3.399,29.8003085,-95.2671692
4335,HIGHWAY 20  AUTO TRUCK PLAZA,US-20,Peosta,IA,335,3.489,42.4412897,-90.7831753
4339,ROAD RANGER #273,I-69E/US-77 & SR-107,Combes,TX,639,3.049,45.0236945,-76.5754212
4349,ROAD RANGER #144,"I-380, EXIT 68US-20, EXIT 68",Evansdale,IA,565,3.729,45.0276805,-76.5696036
4363,EL CHEAPO #4,"I-95, EXIT 87",Richmond Hill,GA,195,3.09566666,30.8276183,-82.0051134
4373,KUM & GO #0043,"I-35, EXIT 43 & SR-207/CRG76",New Virginia,IA,320,3.114,36.1329031,-95.9041032
4389,TAYLOR QUIK-PIK,"I-29, EXIT 75 & US-30",Missouri Valley,IA,486,3.399,41.8581053,-96.7091049
4395,BREAK TIME #3147,"I-55, EXIT 67 & US-62",Sikeston,MO,275,3.499,42.9409896,-81.3408026
4419,CASEYS #3081,"I-35, EXIT 92 & US-136",Bethany,MO,400,3.06066666,33.453596,-84.1452663
4427,CASEYS #2654,"I-80/US-6, EXIT 93 & CR-P28",Stuart,IA,320,3.099,33.2237461,-96.5413208
4431,CASEYS #2653,"US-63 & US-30, EXIT 202",Toledo,IA,320,3.349,33.2239076,-96.5412487
4441,PILOT TRAVEL CENTERS #51,"I-81 BAILEYTON RD, EXIT 36",Greeneville,TN,405,3.56233333,35.2359127,-102.4289014
4445,TA Rogers,"I-94/US-52, EXIT 207 & SR-101",Rogers,MN,448,3.274,45.1888596,-93.5524563
4446,LOVES TRAVEL STOP #200,I-40 EXIT 74,Amarillo,TX,585,3.209,41.5092474,-112.0537895
4452,CASEYS #2867,US-63 & US-20,Waterloo,IA,380,3.499,38.1552716,-90.5498502
4458,KUM & GO #1443,"I-80, EXIT 216",Williamsburg,IA,380,3.13066666,36.1329031,-95.9041032
4463,QUIKTRIP #7901,"I-20, EXIT 556 & US-69",Lindale,TX,710,2.80733333,36.1410805,-95.9918373
4482,FLYING J TRAVEL PLAZA #777,"I-84, EXIT 54(FEDERAL WAY)",Boise,ID,785,3.809,30.8118225,-97.6109688
4525,STINKER #42,US-12/US-95 & SR-128,Lewiston,ID,970,3.69733333,39.5945311,-104.848668
4528,WENATCHEE VALLEY TRUCK STOP,US-97 ALT,Wenatchee,WA,920,4.199,47.4843636,-120.318611
4533,SPEEDWAY #1449,"I-65, EXIT 262B",Birmingham                              ,AL,615,2.97566666,33.9877566,-118.4739516
4555,PILOT TRAVEL CENTERS #406,"I-65, EXIT 22 & US-31A/SR-11",Cornersville,TN,460,3.799,43.1217027,-71.4807373
4560,FAST STOP TRAVEL CENTERS #1109,"I-15, EXIT 392",Plymouth,UT,835,3.58233333,39.2520993,-112.1097535
4563,PILOT TRAVEL CENTERS #299,"I-55/I-74/US-51, EXIT 160 & US-150/SR-9",Bloomington                             ,IL,280,3.599,43.1217027,-71.4807373
4568,ONVO TRAVEL PLAZA,"I-90, EXIT 28",Fultonville,NY,12,3.199,42.5878634,-76.1302114
4618,OUTPOST TRAVEL CENTER,"I-20, EXIT 5 & US-80",Greenwood,LA,745,2.899,32.6830961,-93.1923649
4620,PILOT TRAVEL CENTERS #95,"I-75, EXIT 329 & SR-44",Wildwood                                ,FL,225,3.22566666,33.6614192,-114.2364217
4628,QUARLES #4601,US-29/US-17/US-15,Warrenton,VA,60,3.32233333,38.910908,-76.934825
4642,MARSHAL JUNCTION,"I-70, EXIT 147 & SR-1",Marshall                                ,IL,510,3.199,7.2320118,79.8410214
4644,CIRCLE K #4706703,"I-80, EXIT 145A",Mokena,IL,290,3.399,30.1755249,-85.6243147
4690,PWI #401,"I-20 & I-30, EXIT 1B",Aledo,TX,630,2.799,-6.2336662,106.8866389
4700,A C TRUCKSTOP,"I-80, EXIT 290",Laramie                                 ,WY,795,3.079,35.5835117,-78.1472926
4704,THE RIDGE,"I-68/US-219, EXIT 14 & US-40",Accident,MD,165,4.199,53.4617138,-113.597735
4729,MINIT MART #600244,"I-70, EXIT 131",Straughn,IN,457,3.859,5.352862,100.2366123
4742,FLYING J TRAVEL PLAZA #684,"I-94, EXIT 1 & SR-16",Beach,ND,807,3.96566666,35.0793683,-106.7457342
4806,TRACK AND TRAVEL,"I-20, EXIT 406",Weatherford,TX,630,2.91733333,13.1705246,123.7336169
4818,PILOT TRAVEL CENTER #350,"I-84 & US-20, EXIT 95",Mountain Home,ID,785,3.799,43.1215756,-71.4808431
4819,Alta Convenience #6333,"I-25, EXIT 11",Trinidad,CO,803,3.399,39.0561856,-100.2420087
4826,I-20 Truck Stop,"I-20, EXIT 165",Lincoln,AL,615,2.999,3.5782977,32.0744431
4827,PETRO BEAUMONT #304,"I-10, EXIT 848",Beaumont,TX,610,3.33066666,30.0363014,-94.1547998
4837,SHELL,US-10 & SR-210,Motley,MN,522,3.399,-25.2864234,-57.5711678
4858,PILOT TRAVEL CENTER #1346,"I-135, EXIT 31",Newton,KS,570,3.3115,43.1215756,-71.4808431
4860,PILOT TRAVEL CENTER #476,"I-74, EXIT 32 & SR-17",Woodhull,IL,270,3.899,43.1215756,-71.4808431
4874,PWI #110,"I-20, EXIT 112 & FM-1936",Odessa,TX,710,3.049,-6.2336662,106.8866389
4885,LOVES TRAVEL STOP #384,"I-70, EXIT 45",Greenville,IL,540,3.689,41.5092474,-112.0537895
4887,SUNOCO,"I-80 & I-90, EXIT 3",Wauseon                                 ,OH,550,3.699,42.5946073,-82.7791641
4894,CLOVERDALE TRAVEL PLAZA,"I-70, EXIT 41 & US-231",Cloverdale,IN,375,3.699,39.5302822,-86.8041359
4905,HY-MILER #2204,SR-250,Sandusky,OH,550,3.53233333,41.402239,-82.658757
4909,CIRCLE K #2723916,US-441/US-301/US/27/SR-500,Ocala,FL,140,3.459,29.5043588,-98.3685474
4910,PILOT TRAVEL CENTER #892,"I-70 EXIT 164, & US-50",Green River,UT,835,3.68566666,43.1215756,-71.4808431
4918,PILOT TRAVEL CENTERS #219,"I-40, EXIT 398",Knoxville,TN,405,3.699,39.6919226,-79.1006603
4920,TA LAPLACE,"I-10, EXIT 209 & US-5",La Place,LA,600,3.22733333,30.0852914,-90.4440711
4921,PILOT TRAVEL CENTERS #231,"I-75, EXIT 29",Corbin,KY,410,3.609,36.1791551,-86.2994283
4927,CIRCLE K #2704886,"I-65, EXIT 205 & US-31/SR-22",Clanton,AL,720,3.20733333,30.1755249,-85.6243147
4933,VILLAGE TRUCK STOP,"I-81, EXIT 18",Rural Retreat                           ,VA,185,3.299,44.3883028,-123.0582402
4977,KWIK TRIP #331,SR-54,Wisconsin Rapids,WI,395,3.26233333,44.0587262,-92.5278462
4983,KWIK TRIP #603,"I-94, EXIT 28 & SR-128",Wilson,WI,451,3.549,44.0587262,-92.5278462
5006,SUNOCO,US-1/US-9,Linden,NJ,79,3.799,42.5946073,-82.7791641
5024,I 55 MOTOR PLAZA,"I-55,  EXIT 180",Pevely,MO,540,2.99066666,41.8098672,-88.2118686
5030,YESWAY #1030,US-63 & E MARY ST,Ottumwa,IA,320,3.399,31.7886263,-97.5810299
5050,ROCK PORT TRUCK PLAZA,"I-29 & US-136, EXIT 110",Rock Port,MO,400,3.099,40.404812,-95.5563713
5056,TREX MART #16,"I-35, EXIT, 61 & US-69",Winston,MO,276,3.119,39.5189805,-94.784036
5057,PHILLIPS 66,"I-35, EXIT 54 & I-35 BUS/US-36",Cameron,MO,276,3.099,33.755657,-118.2714478
5064,CLARK OIL #44,"I-59, EXIT 97",Laurel                                  ,MS,620,2.879,35.5564794,-76.6384473
5111,CIRCLE K #2723385,"I-59, EXIT 67 & US-49/SR-42",Hattiesburg,MS,620,3.149,30.1755249,-85.6243147
5117,CIRCLE K #4702361,"I-65, EXIT 130 & SR-334",Whitestown,IN,375,3.29233333,30.1755249,-85.6243147
5128,CASEYS #2769,"I-80, EXIT 220 & SR-149",Williamsburg,IA,380,3.14233333,33.2237218,-96.5394064
5131,TRAILS END TRUCK STOP,"I-29, EXIT 110 & US-136",Rock Port,MO,486,3.40566666,40.406259,-95.5576962
5132,Travel Centers of America,"I-44, EXIT 208 & SR-19",Cuba,MO,574,3.26566666,29.443356,-98.3619004
5160,FUEL MART #727,"I-70, EXIT 193",Quaker City                             ,OH,249,3.16566666,6.7872246,79.9645654
5163,Blue Sky #733,"US-78, EXIT 81 & SR-178",Belden,MS,742,2.939,32.613539,-97.1000998
5165,ONE9 #046,"I-65, EXIT 6 & SR-100",Franklin,KY,415,3.08566666,36.0607925,-79.6621722
5170,FLYING J #516,"I-76, EXIT 161 & I-70",Breezewood,PA,14,5.099,38.790912,-112.076492
5191,NORTH POINT PLAZA,"I-90 & I-94, EXIT 115",Poynette,WI,420,3.17233333,40.6111418,-122.3789653
5202,Chevron #306185,US-30,Montpelier,ID,825,3.699,51.5065602,-0.0267079
5203,OASIS TRAVEL CENTER,"I-10, EXIT 53",Robertsdale,AL,715,3.469,41.115758,-100.7623754
5207,JJ TRAVEL PLAZA,"I-70, EXIT 70 & US-83",Oakley,KS,525,3.61566666,40.7787681,-86.1283124
5227,PILOT TRAVEL CENTERS #900,"I-95, EXIT 75",Dunn,NC,205,3.709,43.1217027,-71.4807373
5230,ONE9 #496,"I-80, EXIT 265",Atalissa,IA,270,3.01566666,39.5897318,-76.0654363
5232,CM EUNICE,US-190,Eunice,LA,730,3.399,2.9538537,9.9172215
5234,SINCLAIR,SR-37,Monett,MO,277,3.29066666,41.7791754,-107.1162507
5236,FLYING J #875,"I-95,  EXIT 109",Elkton,MD,243,4.199,33.902764,-96.9448466
5245,CASEYS #3842,US-36 & US-283,Norton,KS,357,3.15733333,38.1552716,-90.5498502
5247,EDGERTON TRAVEL PLAZA,"I-90, EXIT 160 & US-51",Edgerton,WI,420,3.199,42.8706478,-89.0558769
5258,PT TRUCK STOP,"I-12, EXIT 42",Hammond                                 ,LA,623,3.249,-29.8661836,31.0053553
5282,CASEYS #3548,US-54 & US-61,Pratt,KS,357,3.14066666,33.6712007,-84.2893069
5285,TULLO TRUCK STOP,"I-95, EXIT 15E & US-1/US-9",Kearny,NJ,79,3.799,40.7314845,-74.1099854
5302,ONE9 #258,"I-81, EXIT 150 & US-220 ALT & US-11",Troutville,VA,185,3.03233333,39.5894528,-76.0655329
5306,PILOT TRAVEL CENTERS #11,"I-76, EXIT 232",North Lima                              ,OH,573,3.799,42.3026128,-85.0825185
5324,HY-MILER #2245,SR-53,Fremont,OH,550,3.38233333,41.402239,-82.658757
5341,KWIK STAR #1160,"US-75, EXIT 118 & SR-3",Le Mars,IA,408,3.299,42.4620622,-92.2976419
5389,FLYING J TRAVEL PLAZA #744,"I-15, EXIT 343",Ogden,UT,835,3.749,44.4710928,-93.2946643
5391,PWI #605,"I-10, EXIT 378",San Simon,AZ,640,2.959,-6.2336662,106.8866389
5399,FLYING J TRAVEL PLAZA #750,"I-81 & I-77, EXIT 80",Max Meadows,VA,185,3.549,44.4710928,-93.2946643
5407,CASEYS #4535,US 81,Concordia                               ,KS,570,2.91233333,35.8157281,-81.5029291
5414,One9 #1216,"I-10 ,EXIT 200 & SR-84",Eloy,AZ,930,3.199,27.5282179,-82.5122422
5419,USA TRAVEL CENTER,"I-40, EXIT 48 & US-93",Kingman,AZ,910,3.399,35.1924515,-114.0705136
5424,WK TRUCK STOP,"US-231 & SR-9001, EXIT 75",Beaver Dam,KY,340,3.399,37.3685435,-86.8454485
5436,PARKWAY MARATHON,"US-79, EXIT 94",Caneyville,KY,415,3.73233333,35.7942293,-83.560978
5446,PETRO STOPPING CENTER #308,"I-20, EXIT 8 & SR-526",Shreveport,LA,745,3.17566666,35.5845032,-78.1468483
5464,PILOT TRAVEL CENTERS #48,"I-65, EXIT 86",Glendale,KY,415,3.609,36.5235057,-77.5873935
5477,CHEVRON #383766,"I-5, EXIT 216",Halsey,OR,935,3.099,51.5065602,-0.0267079
5522,ONE9 #301,"I-55,  EXIT 40",Marston,MO,275,3.109,27.5282179,-82.5122422
5529,FLYING J #549,"I-77, EXIT 100 & 101",Mount Airy,NC,65,3.599,38.7908379,-112.0766357
5560,MIDWAY TRAVEL PLAZA,I-70 EXIT 121 & US-40,Columbia,MO,310,3.539,38.9733365,-92.4337082
5569,TA EXPRESS NORWOOD #0450,US-60,Norwood,MO,535,3.449,37.117001,-92.420243
5570,PETRO STOPPING CENTER #310,"I-12, EXIT 40 & US-51 BUS",Hammond,LA,725,3.249,35.5845032,-78.1468483
5579,SAPP BROS TRAVEL CENTER,US-30,Columbus,NE,486,3.219,41.366671,-89.1521604
5592,TA COLUMBIA NORTH,"I-20, EXIT 71 & US-21",Columbia,SC,46,3.439,40.7430019,-111.8927138
5601,BP,"I-24, EXIT 16",Paducah,KY,490,3.429,51.507825,-0.134197
5606,FLYING J #511,"I-94, EXIT 147",Mandan,ND,273,3.95233333,38.7909232,-112.0764702
5607,RICE MART,"I-45 & FM 1603, EXIT 238",Rice,TX,630,3.019,18.4676161,73.8889545
5613,CHEVRON #381108,"I-82, EXIT 36",Yakima,WA,925,3.999,51.5065602,-0.0267079
5649,Fast Stop,"I-10, EXIT 182 & SR-22",Sorrento                                ,LA,623,3.699,44.9520147,-88.0329228
5651,LOVES TRAVEL STOP #303,"I-64, EXIT 43 & SR-395",Waddy,KY,415,3.749,41.5092474,-112.0537895
5659,TEX-BEST #526,US-59 & US-281,George West,TX,625,3.299,32.0099343,-102.0754584
5660,Pride Convenience Store,"I-90, EXIT 51 & I-291",Chicopee,MA,100,3.509,41.8670392,-87.6251248
5661,TA Express #287,"I-40, EXIT 288 & SR-111",Cookeville,TN,460,3.299,40.4870842,-111.8967744
5667,PILOT TRAVEL CENTERS #393,"I-40, EXIT 24 & SR-209",Waynesville                             ,NC,210,3.759,39.6934074,-86.1906133
5669,KWIK TRIP #497,I-90 EXIT 266 & CR-12,Dakota,MN,515,3.474,44.0587262,-92.5278462
5674,TA MADISON TRAVEL CENTER,"I-20, EXIT 114 & US-441",Madison,GA,16,3.89066666,46.8880823,-96.8360553
5677,YESWAY #1178,CR-13,Kadoka,SD,506,3.189,39.5096749,-91.5288325
5691,Pilot Travel Center #666,"I-94, EXIT 30",Benton Harbor,MI,465,3.059,43.1215756,-71.4808431
5700,BEACON & BRIDGE #18,US-131 BUS,Big Rapids,MI,456,3.559,43.7430659,-85.5044179
5718,TOOT N TOTUM #104,US-287,Dalhart,TX,585,3.199,35.1639301,-101.8491722
5739,PILOT TRAVEL CENTERS #284,"I-75, EXIT 18",Monroe                                  ,MI,325,3.399,41.9636466,-83.3537529
5751,TA LAKE PARK TRAVEL CENTER,"I-75,  EXIT 2",Lake Park,GA,20,3.31566666,50.572626,-111.8680809
5758,SPEEDY Q MARKET #8206,"I-94, EXIT 274",Port Huron                              ,MI,325,3.899,43.3281329,-83.0802875
5770,Kwik Trip # 1281,"I-43, EXIT 107",Belgium                                 ,WI,444,3.25566666,44.0587262,-92.5278462
5823,ENMARKET #863,"I-95, EXIT 8 & SR-88",Hardeeville,SC,195,3.08233333,32.048392,-81.1668826
5830,115 TRUCKSTOP #5001,"I-94, EXIT 115",Marshall,MI,431,3.429,50.8649919,11.7725642
5842,PETRO STOPPING CENTER #6367,"I-57,  EXIT 335",Monee,IL,290,3.459,35.5845032,-78.1468483
5909,SINCLAIR,"I-90, EXIT 233",Saint Charles,MN,515,3.529,41.7791754,-107.1162507
5927,HARRISONBURG TRAVEL CENTER,"I-81,  EXIT 243 & US-11",Harrisonburg,VA,185,2.899,38.4044995,-78.911425
5946,PILOT TRAVEL CENTERS #918,I-90 EXIT 55,Rapid City,SD,506,3.999,44.1126648,-103.2731003
5949,EXXON,US-59 & LOOP 151,Texarkana                               ,TX,723,3.16566666,33.0419332,-97.044021
5951,ROAD RANGER #157,I-64 EXIT 41,Okawville,IL,540,3.799,45.0271917,-76.5700098
5965,TRUCK TOWNE,I-29 EXIT 47 & SR-46,Beresford                               ,SD,572,3.159,40.5376904,-80.0114744
5971,WACO TRAVEL CENTER,SR-19,Perry,FL,20,3.699,30.0865527,-83.571737
5990,360 TRUCK STOP,US-360,Amelia Court House,VA,180,3.599,37.357651,-77.874752
5996,Fast Stop Travel Centers #1134,"I-80/US-30, EXIT 99 & US-191/SR-373",Rock Springs,WY,827,3.499,39.2520993,-112.1097535
5999,PILOT TRAVEL STOP #492,"I-30, EXIT 78 & SR-7",Arkadelphia,AR,635,3.559,30.3711166,-81.7633417
6001,ALLSUPS #2392,US-70 & US-285,Roswell,NM,700,3.199,34.7550262,-106.748909
6009,CASEYS #2652,US-65 & US-36,Chillicothe,MO,400,3.289,33.2237627,-96.5413497
6010,SEGOVIA TRUCK STOP,"I-10, EXIT 465",Junction,TX,739,2.999,30.4173938,-99.6722989
6033,EMERY'S,US-54,Deerfield,MO,277,3.349,41.1261244,-79.5565777
6037,CRYSTAL OIL,"I-129/US-20/US-75,  EXIT 2",South Sioux City,NE,527,3.549,14.7031757,120.9853331
6041,COCKERHAM FUEL CENTER #4,"I-77, EXIT 14 & US-58/US-221",Hillsville,VA,185,3.28233333,36.7444089,-80.7744604
6047,FAST LANE #26,US-61,Eolia,MO,494,3.099,44.307849,-69.7117398
6051,CIRCLE K #2709846,"I-25, EXIT 240",Longmont,CO,800,3.05733333,30.1755249,-85.6243147
6057,PILOT TRAVEL CENTER #903,"I-70/US-40, EXIT 252",Salina,KS,523,3.759,43.1215756,-71.4808431
6068,AYERCO #24,US-61 & CR MM,Hannibal,MO,494,3.099,39.7052545,-91.3893407
6083,BP,"I-35, EXIT 33",Holt                                    ,MO,400,3.049,45.7562149,-94.2129243
6087,BREAK TIME #3173,US-54 & CR-HH,Fulton,MO,310,3.299,42.9409896,-81.3408026
6093,ONE9 #901,"I-80 & US-183, EXIT 257",Elm Creek,NE,330,2.96566666,39.5897318,-76.0654363
6097,SAPP BROS TRAVEL CENTER,"I-80, EXIT 263",Elm Creek,NE,330,3.18733333,41.366671,-89.1521604
6106,TA HUNTINGTON,"I-84, EXIT 353",Huntington,OR,982,3.639,44.2931711,-117.2243272
6150,CIRCLE K #2723707,"I-81,  EXIT 150",Troutville,VA,65,3.06566666,30.1755249,-85.6243147
6154,TA MOBILE TRAVEL CENTER,"I-10,  EXIT 4",Grand Bay,AL,715,3.13566666,43.7107597,-92.6969581
6164,PILOT TRAVEL CENTER #268,"I-80/US-6, EXIT 284",Walcott,IA,270,3.859,43.1215756,-71.4808431
6165,TEMP STOP #117,I-70 & GRAIN VALLEY RD EXIT 24,Grain Valley,MO,400,2.959,35.9791141,-83.8944175
6167,PILOT TRAVEL CENTERS #167,US-71,Nevada,MO,277,3.49566666,39.6975708,-86.185134
6173,PILOT TRAVEL CENTERS #21,"I-94, EXIT 167",Dexter,MI,325,3.659,35.270406,-80.8378399
6180,Circle #4703923,"I-24, EXIT 180B & US-27",Chattanooga,TN,285,2.78566666,47.416675,-105.592222
6182,Exxon,"I-20, EXIT 205 & SR-46",Heflin,AL,587,3.01566666,33.0419332,-97.044021
6188,SIGNAL FOOD STORE #112,US-65 & SR-J,Ozark,MO,535,2.999,37.1583041,-93.2398724
6198,DAVIS TRAVEL CENTER #102,"I-95/US-301, EXIT 33 & SR-602",Stony Creek,VA,180,3.06566666,36.977456,-77.39576
6200,KWIK FILL #388,"I-80, EXIT 29 & SR-8",Harrisville,PA,165,3.404,42.4537006,-75.064674
6206,PETRO PORTAGE,"I-90 & I-94, EXIT 108-A",Portage,WI,420,3.80733333,43.4875179,-89.4989515
6212,MR FUEL,"I-55, EXIT 180",Pevely,MO,540,3.01566666,39.6968169,-86.188362
6215,FUEL HUB,"I-87, EXIT 21B",West Coxsackie,NY,12,3.599,13.1453824,123.7343553
6218,LOVES TRAVEL STOP #215,"I-40, EXIT 16 & US-40 BUS/US-66",Gallup,NM,580,3.43733333,41.5092474,-112.0537895
6221,LOVES TRAVEL STOP #214,I-10 EXIT 37,El Paso,TX,640,3.07566666,41.5092474,-112.0537895
6222,QUIKTRIP #236,"I-29/US-71, EXIT 18 & SR-92",Platte City,MO,400,2.999,36.129261,-96.005979
6229,FUEL MART #764,"I-70, EXIT 66 & SR- 54",South Vienna                            ,OH,315,3.129,39.9357287,-83.6112745
6252,PILOT TRAVEL CENTERS #12,I-80 & I-90 EXIT 71,Perrysburg,OH,550,3.759,30.2839033,-81.9837304
6258,CASEYS #6342,"I-29, EXIT 144 & US-169",Saint Joseph,MO,400,3.169,38.1552716,-90.5498502
6286,APPLE MARKET #526,"I-64, EXIT 94",Winchester,KY,410,2.91566666,51.409233,-0.3057033
6293,PETRO STOPPING CENTER #313,"I-40, EXIT 79",Milan,NM,580,3.57066666,35.5845032,-78.1468483
6305,I-95 Fuel Stop,"I-95, EXIT 126 & US-17/US-1",Fredericksburg,VA,180,3.264,38.2340215,-77.5018919
6307,QUIKTRIP #608,"I-70, MID RIVERS MALL",Saint Peters,MO,540,2.904,36.129261,-96.005979
6308,Pilot Travel Centers #354,"I-64, EXIT 28",Simpsonville,KY,415,3.759,43.1217027,-71.4807373
6309,WINNERS CIRCLE #1,"I-30 & US-270, EXIT 98A",Malvern,AR,695,3.35233333,-38.0160297,145.1076552
6310,CIRCLE K #2707515,US-27/SR-25 & US-98/US-700/SR-700/SR-66,Sebring,FL,140,3.389,30.1755249,-85.6243147
6326,KANZA TRAVEL PLAZA,"I-35, EXIT 231 AND US-177",Braman,OK,500,3.02733333,36.9400183,-97.3437401
6327,PETRO STOPPING CENTER #312,"I-40 & I-75, EXIT 369",Knoxville,TN,405,3.42566666,35.5845032,-78.1468483
6351,FLYING J TRAVEL PLAZA #608,"I-10, EXIT 1",Ehrenberg,AZ,930,3.959,30.8118225,-97.6109688
6356,CIRCLE K #2721536,ST 6 EAST,Batesville,MS,435,3.24066666,30.1755249,-85.6243147
6391,TOOT N TOTUM #106,US-287,Dumas,TX,585,3.00566666,35.1639301,-101.8491722
6393,PILOT TRAVEL CENTER #478,"I-64, EXIT 92",Leavenworth                             ,IN,415,3.959,43.1215756,-71.4808431
6401,CIRCLE K #2723457,"I-10, EXIT 34-B",Gulfport,MS,715,2.989,30.1755249,-85.6243147
6441,GRAND OIL,"I-75, EXIT 41 & SR-80",London                                  ,KY,410,3.499,9.7595523,8.8541686
6442,CLARK OIL #49,US-84,Laurel,MS,620,2.999,35.5564794,-76.6384473
6448,CIRCLE K #2723392,"I-59, EXIT 97 & US-84",Laurel,MS,620,2.95233333,30.1755249,-85.6243147
6462,ARCO #471770,US-281 & SR-5,Dunseith,ND,452,3.499,45.9181327,10.8860953
6480,FLYING J #934,"I-84, EXIT 265",La Grande,OR,982,3.53566666,46.0891754,-73.1995122
6492,FLICKS,US-49,Richland,MS,760,2.999,51.6075163,-0.0007031
6517,HARDYS #5,"I-80, EXIT 4   4",Wendover,UT,835,3.499,53.5503899,-0.0246805
6526,TULIP CITY TRUCK STOP,"I-196 & SR-40, EXIT 49",Holland,MI,344,3.739,42.7377137,-86.066242
6547,FLYING J TRAVEL PLAZA #762,"I-90, EXIT 126 & SR-59",Gillette,WY,836,3.899,35.0793683,-106.7457342
6562,PILOT #1323,"I-29, EXIT 35                 ",Faucett                                 ,MO,400,3.27233333,36.1001019,-80.2595698
6563,Road Ranger #282,"I-35, EXIT 500",Gainesville,TX,630,3.17566666,45.0235551,-76.5760347
6593,LITTLE AMERICA TRAVEL CENTER,"I-40, EXIT 198",Flagstaff,AZ,930,3.539,35.1912044,-111.6182281
6628,FLYING J TRAVEL PLAZA #682,"I-85, EXIT 150",Haw River,NC,65,3.94233333,35.0793683,-106.7457342
6633,BAKER TRUCK CORRAL,"I-84, EXIT 304",Baker City,OR,982,3.42566666,44.7810942,-117.8131221
6661,TA FRANKLIN TRAVEL CENTER,"I-65, EXIT 61",Franklin,TN,460,3.839,36.7173116,-86.5247585
6693,SAPP BROS TRAVEL CENTER,US-77,Fremont,NE,486,3.34566666,41.366671,-89.1521604
6704,FL Roberts,"I-91, EXIT 24",Whately,MA,100,3.559,29.5916525,-81.6068759
6716,MARATHON,"I-29/US-81, EXIT 65 & I-94 BUS/US-10",Fargo,ND,341,3.449,44.8914036,-89.7748098
6721,STAMART 1222,"I-29, EXIT 64",Fargo,ND,341,3.38566666,6.4550149,3.4293056
6742,Holiday #3810,"I-94/US-52, EXIT 178 & SR-24",Clearwater,MN,453,3.22066666,49.5800609,5.9578225
6744,FLYING J #550,US-2/US-52,Minot,ND,273,3.93566666,38.7908356,-112.07664
6755,PETRO STOPPING CENTER #326,"I-40, EXIT 161 & SR-391",North Little Rock,AR,695,3.20733333,35.5845032,-78.1468483
6806,Onvo Travel Plaza,"I-78/US-22, EXIT 45 & SR-863",Kutztown,PA,90,3.32733333,42.5878634,-76.1302114
6810,TA RICHMOND,"I-95, EXIT 89 & SR-802",Ashland,VA,180,3.60566666,37.7478572,-84.2946539
6823,PETRO STOPPING CENTER #301,"I-10, EXIT 37",El Paso,TX,640,3.124,35.5845032,-78.1468483
6859,PRIME STOP,US-81,Norfolk,NE,470,3.229,33.1065949,-96.1100501
6883,PILOT TRAVEL CENTERS #517,US- 22 & SR-322,Duncannon,PA,70,4.199,39.6975708,-86.185134
6886,PWI #535,"I-70, EXIT 47",Palisade,CO,800,3.379,-6.2336662,106.8866389
6897,Speedee Mart #2890,US-20 & US-83,Valentine,NE,475,3.329,41.2540302,-95.9056243
6901,PRIME STOP,US-275,Wisner,NE,470,3.259,33.1065949,-96.1100501
6944,CROSSROADS TRUCK STOP,"I-82, EXIT 1 & US-730",Umatilla,OR,982,3.239,45.9179173,-119.324435
6948,PILOT #4563,"I-8I, EXIT 77",Harrisburg,PA,70,3.869,37.2998715,-80.0106559
6951,ARROWHEAD TRAVEL PLAZA,"I-84, EXIT 216 & SR 331,",Pendleton,OR,982,3.259,45.6427781,-118.6822617
6954,BOLLA MARKET #198,SR-17MAHWA,Mahwah,NJ,115,3.58566666,41.0960663,-74.1579431
6960,FLYING J TRAVEL PLAZA #761,"I-80 & US-189, EXIT 3",Evanston,WY,835,3.699,44.4710928,-93.2946643
6961,LITTLE AMERICA,"I-80, EXIT 358 & I-25, EXIT 9 & US-30",Cheyenne,WY,795,3.709,41.5443686,-109.8581261
6962,LITTLE AMERICA TRAVEL CENTER,"I-80, EXIT 68 & SR-374",Little America,WY,835,3.52566666,35.1912044,-111.6182281
6963,Atlantis Fresh Market #553,"I-84, EXIT 1",Montague,NJ,120,3.509,41.3226035,-72.195547
6968,R STORE #4513,US-41,Fond Du Lac,WI,360,3.299,45.4711983,9.1843718
6971,KWIK TRIP #1013,"I-41, EXIT 57 & SR-167",Richfield,WI,444,3.39066666,44.0587262,-92.5278462
6980,TA MADISON TRAVEL CENTER,"I-90/I-94/I-39, EXIT 132 & US-51",De Forest,WI,420,3.839,46.8880823,-96.8360553
6981,Kwik Trip #1197,"US-151, EXIT 26",Belmont,WI,335,3.564,44.0587262,-92.5278462
6986,LOVES TRAVEL STOP #448,"I-5, EXIT 136B, SR-509",Tacoma,WA,977,4.589,41.5092474,-112.0537895
6987,One9 #965,"I-90, EXIT 109 & US-97",Ellensburg                              ,WA,977,3.859,39.5897318,-76.0654363
6992,FLYING J #1169,"I-5, EXIT 99",Tumwater,WA,977,4.599,46.9518175,-122.9406853
6999,SIMMONS TRAVEL CENTER,"I-85, EXIT 4 & SR-93/SR-903",Bracey,VA,180,3.099,36.6645301,-77.5540112
7005,PETRO STOPPING CENTER,"I-81 & I-64, EXIT 205",Raphine,VA,185,3.659,35.1810309,-107.9038246
7007,KUM & GO #0201,"I-80, EXIT 242",Coralville,IA,380,3.294,36.1329031,-95.9041032
7016,TA SALT LAKE CITY TRAVEL CENTER,"I-80, EXIT 99",Tooele,UT,835,3.769,40.6894678,-112.2632614
7018,FLYING J TRAVEL PLAZA #746,"I-15 & I-80 SR 201, EXIT 305",Salt Lake City,UT,835,3.73233333,30.8118225,-97.6109688
7037,SAMS TRUCK STOP,"I-10, EXIT 138",Van Horn,TX,640,3.999,31.0347213,-104.8565327
7045,BUBBLE CITY TRUCK STOP,US-64,Farmington,NM,614,3.70566666,36.7188082,-108.1677452
7051,PILOT #887,US-84 & US-180,Snyder,TX,575,3.24566666,32.7266833,-96.6895181
7058,YESWAY #1125,"I-27, EXIT 1C",Lubbock,TX,700,2.969,31.7886263,-97.5810299
7066,REFUEL #328,"I-35,  EXIT 204",San Marcos,TX,595,2.999,-30.2736754,116.6649727
7080,ONE9 #1422,"I-40, EXIT 197",Moriarty,NM,580,3.11566666,39.5897318,-76.0654363
7082,Chevron,"I-65, EXIT 6",Ardmore,TN,460,3.599,51.5065602,-0.0267079
7084,Holiday StationStore #2746500,US-12 & US-281,Aberdeen,SD,248,3.114,61.1405592,-149.9512868
7092,LOVES TRAVEL STOP #445,I-90 EXIT 399 & SR 115,Sioux Falls,SD,530,3.889,41.5092474,-112.0537895
7106,PILOT DEALER #1163,"I-80, EXIT 42",Emlenton,PA,165,4.03566666,40.8921299,-74.6857592
7126,SAPP BROS TRAVEL CENTER,"I-80, EXIT 120",Clearfield,PA,14,3.899,41.366671,-89.1521604
7196,SALUDA TRUCK PLAZA,"I-26, EXIT 28",Saluda                                  ,NC,210,3.099,35.2452796,-82.3299573
7212,ONVO TRAVEL PLAZA,"I-90 & RTE 22, EXIT B-3",Canaan,NY,12,3.439,42.5878634,-76.1302114
7213,SENECA ONE STOP,"I-90, EXIT 58",Irving                                  ,NY,38,2.899,42.8753616,-78.870765
7220,CUMBERLAND FARMS #001662,US-9W/SR-32,Glenmont,NY,12,3.799,42.3422039,-71.153832
7225,LOVES TRAVEL STOP #329,US-60,Clovis,NM,593,4.089,41.5092474,-112.0537895
7227,NATIONAL TRUCK STOP,"I-10, VADO EXIT 155",Vado                                    ,NM,640,2.999,35.1937977,-101.705835
7228,MAVERIK COUNTRY STORE #638,"I-40, EXIT 159D & I-25/US-85, EXIT 227",Albuquerque,NM,580,3.20733333,41.1401806,-112.0458758
7240,Pilot Travel Centers #190,"I-78, EXIT 12 & US-22",Hampton                                 ,NJ,105,3.809,43.1217027,-71.4807373
7265,Fast Stop Travel Centers #1151,"I-80, EXIT 164 & CR-56C",Hershey,NE,475,3.499,39.2520993,-112.1097535
7268,SAPP BROS TRAVEL CENTER,"I-80, EXIT 440 & SR-50, EXIT 440",Omaha,NE,486,3.28066666,41.366671,-89.1521604
7282,ALLTOWN FRESH,"I-87, EXIT 17N & US-9",Fort Edward,NY,12,3.759,41.3644148,-72.9222097
7285,SENECA ONE STOP,"SR-17, EXIT 20",Salamanca                               ,NY,38,3.309,42.8753616,-78.870765
7286,TA MISSOULA,"I-90, EXIT 96 & US-93",Missoula,MT,820,3.699,46.9480725,-114.1287557
7288,TA LAUREL,"I-90, EXIT 437",Laurel,MT,780,3.61233333,37.1000973,-84.1148273
7289,TA STRAFFORD,"I-44, EXIT 88 & SR-125",Strafford,MO,535,3.36566666,37.2749321,-93.1153308
7291,TA OAK GROVE TRAVEL CENTER,"I-70, EXIT 28",Oak Grove,MO,400,3.22233333,36.6923024,-87.451062
7310,AAA HOSPITALITY,"I-55, EXIT 220",Tillatoba,MS,435,2.784,-26.1474132,28.0996803
7312,208 FUEL PLAZA,"I-70, EXIT 208",Belmont,OH,430,3.419,45.6435825,-118.6836612
7323,TRUCKERS INN,"I-94/US-52, EXIT 127 & US-71",Sauk Centre,MN,453,3.22566666,-18.8947158,29.8111344
7326,PETRO STOP #398,"I-35 & I-90, EXIT 11",Albert Lea,MN,515,4.099,33.4595268,-112.117597
7327,TA TEKONSHA,"I-69,EXIT 25 & SR-60",Tekonsha,MI,385,3.599,42.1068882,-84.9890984
7337,TA BATTLE CREEK,"I-94, EXIT 104",Battle Creek,MI,385,4.039,44.2129975,-96.8404804
7341,INTERSTATE TRAVEL PLAZA,"I-495, EXIT 14A & US-1",Wrentham,MA,175,3.699,33.6696824,-97.1527179
7344,BEST QUICK STOP,US-1,Peabody,MA,178,3.61566666,42.5349141,-70.9892894
7360,KINGS TRUCK STOP,ST 103,Port Barre                              ,LA,600,3.189,18.0215723,-76.7943542
7364,Petro Stopping Center,"I-80, EXIT 226",Girard,OH,573,3.45233333,35.1810309,-107.9038246
7370,TA SMITHS GROVE,"I-65, EXIT 38 & SR-101",Smiths Grove,KY,415,3.43233333,37.0525453,-86.2077608
7371,One9 #392,"I-65, EXIT 81 & SR-84",Sonora,KY,415,3.19566666,36.0607925,-79.6621722
7387,TA Oakley,"I-70, EXIT 76 & US-40/US-83",Oakley,KS,525,3.649,39.1179005,-100.810744
7416,GOOD TO GO #40,"I-65, EXIT 215 & SR-114",Rensselaer,IN,290,3.20066666,35.7252094,139.5942553
7417,SKY CITGO,US-30 & SR-23,Grovertown,IN,365,3.499,28.4600772,-81.3975811
7425,Petro Brazil,"I-70,  EXIT 23",Brazil,IN,375,3.989,39.4445762,-87.1277589
7429,TA CLAYTON,"I-70, EXIT 59 & SR-39",Clayton,IN,375,3.939,40.4605637,17.3004283
7435,PETRO STOPPING CENTER #375,"I-65, EXIT 201 & US-231/US-24",Remington,IN,365,3.699,35.1810309,-107.9038246
7436,TA WHITESTOWN,"I-65/US-52, EXIT 130",Whitestown,IN,375,3.57066666,54.8264798,-6.184448
7437,PETRO STOPPING CENTER #379,"I-74,  EXIT 143",Greensburg,IN,375,3.999,35.1810309,-107.9038246
7495,RACETRAC #2574,"I-75, EXIT 237, SR-331 & US-41",Forest Park,GA,18,3.109,46.2466404,23.1058649
7504,TEXACO,"I-75, EXIT 306 & SR-140",Adairsville,GA,193,3.10566666,10.4048559,-75.5239034
7545,CITGO,"I-95, EXIT 40",Milford,CT,100,3.399,42.2279712,-83.1484553
7551,PWI #525,"I-70, EXIT 295",Watkins,CO,800,3.139,-6.2336662,106.8866389
7611,LOVES TRAVEL STOP #167,"I-44, EXIT 83",Chickasha                               ,OK,483,3.16566666,41.5092474,-112.0537895
7625,LOVES TRAVEL STOP #248,"I-40, EXIT 71",Clinton,OK,483,3.17233333,41.5092474,-112.0537895
7627,DAVIS TRADING POST,"I-35, EXIT 55",Davis                                   ,OK,569,2.979,35.0858852,-81.867486
7635,TA MONTGOMERY TRAVEL CENTER,"I-65, EXIT 168 & US-80/US-82/SR-6/SR-8",Montgomery,AL,720,3.25233333,38.0861699,-83.8981633
7655,LOVES TRAVEL STOP #253,I-40 EXIT 7 & SR 30,Erick,OK,483,3.20566666,41.5092474,-112.0537895
7705,FLYING J TRAVEL PLAZA #610,"I-40, EXIT 53",Kingman,AZ,910,3.88233333,44.4710928,-93.2946643
7708,PILOT TRAVEL CENTER #352,"I-75, EXIT 139",Fort Myers                              ,FL,225,3.799,43.1215756,-71.4808431
7718,MR FUEL #717,"I-44, EXIT 251",Villa Ridge,MO,540,3.01566666,9.2932006,123.2761026
7719,FLYING J TRAVEL PLAZA #674,"I-70, EXIT 188",Warrenton,MO,540,3.11566666,30.8118225,-97.6109688
7722,SAPP BROS TRAVEL CENTER,"I-80, EXIT 353 & US-81",York,NE,330,3.324,41.366671,-89.1521604
7724,FUEL MART #767,US-6 & US-23,Bradner,OH,550,3.40733333,40.9880825,-75.144269
7725,BELL STORES #48,US-30 & SR-94,Dalton,OH,249,3.38566666,40.9724803,-82.1099971
7733,FLYING J TRAVEL PLAZA #723,"I-40, EXIT 76",Amarillo,TX,585,3.26566666,44.4710928,-93.2946643
7746,PILOT TRAVEL CENTER #888,"I-27, EXIT 74",Tulia,TX,585,3.34066666,43.1215756,-71.4808431
7753,LOVES TRAVEL STOP #166,SR-351,Muskogee,OK,560,3.33733333,41.5092474,-112.0537895
7767,FLYING J TRAVEL PLAZA #759,"I-25, EXIT 7",Cheyenne,WY,795,3.709,30.8118225,-97.6109688
7792,FLYING J TRAVEL PLAZA #630,"I-75/SR-401, EXIT 201 & SR-36",Jackson,GA,67,3.384,44.4710928,-93.2946643
7825,PILOT TRAVEL CENTERS #356,"I-65, EXIT 121",Shepherdsville,KY,415,3.609,43.1217027,-71.4807373
7873,One9 #387,"I-80, EXIT 280 & SR- 278",Carlin                                  ,NV,835,3.439,39.5897318,-76.0654363
7886,PETRO STOPPING CENTER #357,"I-70, EXIT 156B & US-40",New Paris,OH,317,3.48733333,35.5845032,-78.1468483
7930,I 24 TRUCK PLAZA,"I-24, EXIT 114 & US-41",Manchester,TN,460,3.099,35.4563191,-86.0453596
7946,PILOT TRAVEL CENTERS #289,"I-90/I-39, EXIT 158 & I-43/SR-81, EXIT 1",Beloit                                  ,WI,520,3.799,40.9606294,-117.7476965
7959,SPF #45,"I-25/US-87, EXIT 7 & US-212",Cheyenne,WY,795,3.22566666,47.9007183,1.9141693
8840,LOVES TRAVEL STOP #211,"I-35, EXIT 120",Oklahoma City,OK,483,3.25566666,41.5092474,-112.0537895
8927,LOVES TRAVEL STOP #219,"I-40, EXIT 200",Seminole,OK,560,3.36233333,41.5092474,-112.0537895
8961,FLYING J TRAVEL PLAZA #736,"I-20, EXIT 42 & US-285",Pecos,TX,710,3.46566666,44.4710928,-93.2946643
8977,LOVES TRAVEL STOP #168,"I-44, EXIT 20",Walters                                 ,OK,253,3.194,41.5092474,-112.0537895
8987,LOVES TRAVEL STOP #255,"I-40, EXIT 287 & SR-100",Webbers Falls,OK,645,3.789,41.5092474,-112.0537895
9160,PILOT TRAVEL CENTERS #912,"I-80, EXIT 300 & SR-40D",Wood River,NE,330,3.28233333,43.1217027,-71.4807373
9216,309 TRUCK STOP,SR-309,Coopersburg                             ,PA,90,3.759,40.4930597,-75.3812465
9289,ONVO EXPRESS,"I-81, EXIT 217 & SR-547",Harford,PA,200,3.609,41.0418006,-75.312508
9340,LANCASTER TRAVEL PLAZA,US-30,Ronks,PA,208,3.899,42.9526995,-78.6022961
9365,FLYING J TRAVEL PLAZA #713,"I-95, EXIT 181",Latta,SC,63,3.349,44.4710928,-93.2946643
9382,PILOT TRAVEL CENTERS #286,"I-70, EXIT 10 & SR-127",Eaton,OH,317,3.46233333,43.1217027,-71.4807373
9383,PILOT TRAVEL CENTERS #285,"I-70, EXIT 126 & SR-37",Hebron,OH,315,3.44566666,31.8259168,-103.9089178
9386,PETRO STOPPING CENTER #325,"I-75,  EXIT 167",North Baltimore,OH,550,3.27066666,35.5845032,-78.1468483
9403,PILOT TRAVEL CENTERS #280,"I-78, EXIT 7 & SR-173",Bloomsbury                              ,NJ,105,3.809,31.9597614,-83.7467122
9423,PETRO STOPPING CENTER #318,"I-70, EXIT 148",Kingdom City,MO,540,3.05733333,35.5845032,-78.1468483
9449,CORNER PANTRY #127,"I-26, EXIT 115 & US-321",West Columbia,SC,135,3.41233333,33.93024,-81.0763518
9468,TA LAKE STATION,"I-80 & I-94, EXIT 15B",Lake Station,IN,365,3.849,41.5902554,-87.2385239
9485,PILOT TRAVEL CENTER #4559,"I-20, EXIT 26",Villa Rica,GA,18,3.389,43.1215756,-71.4808431
9525,SCOTCHMAN #3891,"I-77, EXIT 65 & SR-9",Richburg,SC,46,3.109,44.583906,-87.886083
9542,SPINX #266,"I-26, EXIT 104",Columbia,SC,135,3.13233333,34.852516,-82.4138705
9553,LYNDON STATION BP,I-90 & 94 EXIT 79,Lyndon Station,WI,420,3.177,43.7159612,-89.8958015
9614,DITTYS,"I-90, EXIT 284 & SR-45",Kimball,SD,455,3.089,-34.1068121,138.9535682
9638,PILOT TRAVEL CENTERS #62,"I-95, EXIT 170 & SR-327",Florence,SC,46,3.349,35.9801198,-84.0170509
9675,FLYING J TRAVEL PLAZA #722,"I-75 & I-40, EXIT 369",Knoxville,TN,405,3.439,44.4710928,-93.2946643
9703,PILOT TRAVEL CENTERS #2,"I-90, EXIT 223 & SR-45",Austinburg                              ,OH,305,3.859,41.289951,-87.2950639
9724,One9 #1339,"I-81,  EXIT 34",Parish,NY,190,3.799,39.5897318,-76.0654363
9763,DELUXE TRUCK STOP,SR-759,Saint Joseph,MO,400,3.149,-37.9034172,144.6570722
9783,KANGAROO CROSSING #1101,"I-55, EXIT 144",Pickens                                 ,MS,705,3.099,-29.889588,152.9002852
9818,CIRCLE K #4707002,"I-95, EXIT 157",Newport,ME,170,3.899,30.1755249,-85.6243147
9821,PILOT TRAVEL CENTERS #52,"I-24, EXIT 64",La Vergne                               ,TN,460,3.47233333,35.9977553,-86.595177
9842,Petes #03,US-59 & US-54,Moran,KS,336,3.26566666,46.7743131,-64.330145
9855,PILOT TRAVEL CENTER #37,"I-65, EXIT 95",Whiteland,IN,375,3.959,39.9457194,-82.53672
9862,PILOT TRAVEL CENTER #271,"I-80, EXIT 6",Gary,IN,365,3.829,43.1215756,-71.4808431
9887,7-ELEVEN #40354,"I-95, EXIT 173",Palm Bay,FL,140,3.21566666,24.151737,120.6724427
9941,FLYING J TRAVEL PLAZA #609,"I-10, EXIT 208-A",Eloy,AZ,930,3.45233333,35.0793683,-106.7457342
9962,STRIPES #40673,"I-45, EXIT 179",Mcallen,TX,639,3.289,52.437075,-6.9618733
9973,BOLLA MARKET,"I-287, EXIT 66",Mahwah,NJ,115,3.53233333,40.5827757,-73.9595285
9995,LOVES TRAVEL STOP #411,"I-35 & I-80, EXIT 125 & US-6",Clive,IA,320,3.34066666,41.5092474,-112.0537895
10014,Sudden Service #6604,"I-40, EXIT 212",Nashville,TN,460,3.399,36.7151375,-86.5189712
10015,Loves Travel Stop #429,"I-65 & I-24, EXIT 87",Nashville,TN,460,3.46233333,41.5092474,-112.0537895
10020,Maplefields,"US-4, EXIT 2 & SR-22A",Fair Haven,VT,39,3.599,52.2491678,0.8316574
10028,GOOD TO GO #10,US-35,Winamac,IN,290,3.914,41.3112893,69.5446345
10030,LOVES TRAVEL STOP #715,I-77 EXIT 58 & SR-666 & US-52,Bastian,VA,185,3.59733333,41.5092474,-112.0537895
10033,SHELL,"I-95, EXIT 133 & US-17 BUS",Fredericksburg,VA,180,3.25566666,-25.2864234,-57.5711678
10053,BECKS #27,"I-39/US-51, EXIT 72 & US-34",Mendota,IL,270,3.269,56.131915,10.185459
10057,Flying J Travel Plaza #649,"I-465, EXIT 4",Indianapolis,IN,375,3.899,44.4710928,-93.2946643
10058,CITGO,US-431/SR-1 & SR-27,Abbeville                               ,AL,10,3.399,42.2279712,-83.1484553
10065,ROAD MART,US-71/US-59,Ashdown,AR,723,3.299,1.3288928,103.8871562
10077,FLYING J TRAVEL PLAZA #607,"I-55, EXIT 4 & I-40, EXIT 280",West Memphis,AR,435,3.15066666,44.4710928,-93.2946643
10104,GEO H GREEN OIL,"I-85/SR-403, EXIT 41 & US-27 ALT",Newnan,GA,18,3.199,33.4153258,-84.7523792
10116,Petro Stopping Center #359,"I-39/US-51, EXIT 99 & SR-38",Rochelle,IL,520,3.759,35.1810309,-107.9038246
10122,LOVES TRAVEL STOP #417,"I-80 & I-94, EXIT 9A",Gary,IN,365,3.809,41.5092474,-112.0537895
10126,PILOT TRAVEL CENTERS #152,"I-65, EXIT 16 & MEMPHIS RD",Memphis,IN,415,3.959,39.6975646,-86.1855805
10128,PETES #20,US-54/SR-7 & US-69,Fort Scott,KS,307,3.199,46.7749715,-64.3302033
10135,YESWAY #1116,"I-35, EXIT 60",Mcpherson,KS,434,3.259,31.7886263,-97.5810299
10142,PILOT TRAVEL CENTERS #438,"I-65, EXIT 6 & SR-100",Franklin,KY,415,3.169,43.1217027,-71.4807373
10144,PILOT TRAVEL CENTERS #358,"I-24 & US-305, EXIT 3",Paducah,KY,490,3.699,43.1217027,-71.4807373
10146,PILOT TRAVEL CENTERS #437,"I-75, EXIT 11 & SR-92",Williamsburg,KY,410,3.609,43.1217027,-71.4807373
10150,PILOT TRAVEL CENTERS #300,"I-12, EXIT 40",Hammond,LA,725,3.23233333,43.1217027,-71.4807373
10154,I 49 TRUCK STOP,"I-49, EXIT 23 & US-167",Opelousas                               ,LA,600,3.199,3.5782977,32.0744431
10168,Express Stop,"I-94, EXIT 145",Jackson                                 ,MI,385,3.589,51.565269,-0.1341948
10181,QUIKTRIP #611,I-55 EXIT 178,Herculaneum,MO,540,2.99066666,36.0891156,-95.9573049
20006,CENEX C STORE,US-52,Kenmare,ND,452,3.46733333,46.3541498,-98.7048881
20011,CUBBYS #111,US-81,Norfolk,NE,470,3.209,35.4243051,-83.3210561
20012,FLYING J TRAVEL PLAZA #686,"I-80, EXIT 432",Gretna,NE,319,3.28233333,44.4710928,-93.2946643
20014,SIMONS EXIT 16,"I-89, EXIT 16",Enfield                                 ,NH,39,3.499,33.9875135,-118.1331252
20019,SUNOCO,"I-295, EXIT 2C & SR-140",Penns Grove,NJ,150,3.459,42.5946073,-82.7791641
20024,LOVES TRAVEL STOP #259,"I-10 & AIRPORT RD, EXIT 132",Las Cruces,NM,640,3.214,41.5092474,-112.0537895
20027,LOVES TRAVEL STOP #262,"I-40, EXIT 333",Tucumcari,NM,585,3.889,41.5092474,-112.0537895
20033,LOVES TRAVEL STOP #772,"I-86 & SR-17, EXIT 37",Bath,NY,190,4.489,41.5092474,-112.0537895
20036,SMOKIN JOES,I-90 EXIT 24,Sanborn                                 ,NY,38,3.699,-37.5801829,144.7245448
20045,PILOT TRAVEL CENTERS #281,"I-80, EXIT 226",Girard,OH,573,3.45233333,27.2114473,-98.1417334
20049,LOVES TRAVEL STOP #263,"I-44, EXIT 45 & SR-49",Lawton,OK,569,3.21733333,41.5092474,-112.0537895
20050,LOVES TRAVEL STOP #260,"I-35, EXIT 106 & SR-9 W",Norman,OK,483,3.254,41.5092474,-112.0537895
20054,Jacksons Food Stores,"I-84, EXIT 261",La Grande,OR,925,3.687,42.8584832,-112.4348381
20062,PILOT TRAVEL CENTERS #298,"I-80, EXIT 256 & SR-93",Drums,PA,200,3.97566666,39.6975646,-86.1855805
20066,KWIK FILL #228,"I-90, EXIT 45 & US-20",North East,PA,240,4.089,42.4537006,-75.064674
20072,PILOT TRAVEL CENTERS #310,"I-85, EXIT 63 & SR-290",Duncan,SC,210,3.43233333,32.4504237,-95.2837949
20083,FLYING J TRAVEL PLAZA #724,"I-10, EXIT 0",Anthony                                 ,TX,640,3.459,44.4710928,-93.2946643
20086,LOVES TRAVEL STOP #609,"I-35, EXIT 471 & US-77",Denton,TX,630,3.24733333,41.5092474,-112.0537895
20105,CEFCO #1050,"I-30, EXIT 146 & US-37",Mount Vernon,TX,723,2.94233333,30.1505952,-85.5916889
20108,TEX-BEST #501,"I-37, EXIT 125",Elmendorf                               ,TX,740,2.949,32.0099343,-102.0754584
20109,PILOT TRAVEL CENTERS #306,"I-10, EXIT 582",San Antonio                             ,TX,740,3.214,43.1217027,-71.4807373
20114,CROSSROADS,"I-10, EXIT 829 & SR-124",Winnie                                  ,TX,610,4.249,39.9153914,-74.8259963
20118,KWIK TRIP #648,"I-94, EXIT 116 & SR-54",Black River Falls,WI,395,3.23733333,44.0587262,-92.5278462
20119,FREMONT CITGO,US-10 & SR-110,Fremont,WI,444,3.399,44.2598762,-88.8506544
52048,PILOT TRAVEL CENTERS #302,"I-10, EXIT 13 & CR-30",Theodore,AL,715,3.199,35.4043049,-94.5217107
52052,EXPRESSWAY MOBIL,US-63 & US-167,El Dorado,AR,635,3.599,40.7387964,-73.792385
52067,PETRO STOPPING CENTER #322,"I-285, EXIT 12",Atlanta,GA,18,3.44566666,35.5845032,-78.1468483
52088,CASEYS #4459,"I-64, EXIT 265",Mayfield,KY,490,3.249,38.1552716,-90.5498502
52090,SHOP A LOTT #10,"I-49, EXIT 138 & SR-6",Natchitoches                            ,LA,766,3.12566666,31.7258732,-93.162274
52099,BEACON & BRIDGE #7,"I-75, EXIT 126",Mount Morris,MI,342,3.379,43.1185611,-83.7606829
52104,BLUE SKY #734,SR-1,Saltillo                                ,MS,435,3.08233333,32.6134163,-97.0999467
52107,PILOT #7983,"I-85,  EXIT 71",Salisbury,NC,46,3.499,47.6194347,-117.5219498
52128,Sudden Service #8087,I-40 EXIT 238,Lebanon,TN,460,3.199,36.7151375,-86.5189712
52140,Sinclair,"I-82, EXIT 69",Sunnyside,WA,925,4.599,41.7791754,-107.1162507
52142,PILOT TRAVEL CENTERS #296,"I-94 & BAKER RD, EXIT 167",Dexter,MI,325,3.499,42.2961552,-83.8789755
52143,One9 #319,"I-75, EXIT 328",Dalton,GA,285,3.01566666,39.5897318,-76.0654363
52145,Pilot Travel Center #318,"I-465/I-74/US-52/US-40/SR-67, EXIT 4 & SR-37",Indianapolis,IN,375,3.899,43.1215756,-71.4808431
52146,FLYING J TRAVEL PLAZA #758,"I-25, EXIT 185 & SR-258",Casper,WY,790,3.999,35.0793683,-106.7457342
52149,PILOT TRAVEL CENTERS #321,"I-75/71, EXIT 175 & SR-338",Walton,KY,300,3.08566666,43.1217027,-71.4807373
52150,PILOT TRAVEL CENTERS #311,"I-90, EXIT 27 & SR-97",Erie,PA,240,4.21566666,43.1217027,-71.4807373
52152,PILOT TRAVEL CENTERS #308,"I-80 , EXIT 310",Laramie,WY,795,3.609,43.1217027,-71.4807373
52153,PILOT TRAVEL CENTER #1412,"I-94 & RUSSELL RD, EXIT 1",Wadsworth,IL,444,3.769,43.1215756,-71.4808431
52163,PILOT TRAVEL CENTER #67,"I-75, EXIT 296",Cartersville,GA,18,3.56566666,31.1898562,-101.4497434
52212,FLYING J TRAVEL PLAZA #763,"I-80, EXIT 209",Rawlins,WY,795,3.749,30.8118225,-97.6109688
52221,FLYING J TRAVEL PLAZA #726,"I-20, EXIT 472",Dallas,TX,630,3.18233333,44.4710928,-93.2946643
52222,FLYING J TRAVEL PLAZA #735,"I-10, EXIT 873 & SR-62",Orange,TX,610,3.309,44.4710928,-93.2946643
52230,ONE9 #294,"I-15 & I-84, EXIT 344 SR-39",Ogden                                   ,UT,835,3.32566666,36.0607925,-79.6621722
52233,SPEEDWAY #2953,"US-80, EXIT 3",Yuma,AZ,900,3.46566666,33.9798784,-118.467216
52235,PETRO STOPPING CENTER #303,"I-80, EXIT 310",Laramie,WY,795,3.57566666,35.5845032,-78.1468483
52236,CHEVRON,US-60,Globe,AZ,930,4.299,51.5065602,-0.0267079
52239,PILOT TRAVEL CENTER #192,"I-75, EXIT 60",Tifton,GA,10,3.619,41.1286203,-80.7706026
52241,Rocket,"I-25/US-85/US-87, EXIT 161 & SR-105",Monument                                ,CO,803,3.195,34.6491257,-98.4489819
52250,PILOT TRAVEL CENTERS #222,I-84 EXIT 1,Sturbridge,MA,215,4.159,35.3900412,-89.411052
52255,GREATER CHICAGO I 55,"I-55, EXIT 267 & SR-53",Bolingbrook,IL,290,3.609,43.5890863,-79.6490863
52262,CIRCLE K #2721577,US-84 & SR-21,Monroeville,AL,715,3.434,29.5043588,-98.3685474
52297,IGA EXPRESS SHELL #874,"I-65, EXIT 20",Bowling Green,KY,460,2.999,39.3917743,-84.6549093
52299,415 TRUCK STOP,"I-10, EXIT 151 & SR-415",Port Allen,LA,600,3.089,30.4437514,-91.2447936
52304,Fast Stop,"I-10, EXIT 182 & SR-22",Sorrento,LA,600,3.699,44.9520147,-88.0329228
52307,CASEYS #3002,SR-60 & SR-30/SR-4,Saint James,MN,425,3.219,36.0745354,-78.5871607
52313,CIRCLE K #2723445,"I-20, EXIT 5A & US-61/SR-27",Vicksburg,MS,760,2.959,30.1755249,-85.6243147
52322,BOLLA MARKET,"I-95, EXIT 13",Elizabeth,NJ,115,3.099,40.6794703,-73.9535959
52323,POWER,"I-78, EXIT 58 & SR-9/SR-1",Newark,NJ,115,4.299,42.6769078,-112.8869775
52325,MIRABITO #69,"I-88, EXIT 15 & SR-23",Oneonta,NY,12,3.999,43.4045538,-76.1191907
52326,MR FUEL #715,"I-70, EXIT 203",Foristell,MO,540,2.92566666,9.2932006,123.2761026
52334,KWIK TRIP #775,"I-90, EXIT 69 & SR-82",Mauston,WI,420,3.28733333,44.0587262,-92.5278462
52335,SHELL,"I-295, EXIT 3",Disputanta,VA,180,3.029,-25.2864234,-57.5711678
52340,KWIK FILL #249,US-22,Duncansville,PA,14,4.07233333,42.4537006,-75.064674
52344,STAMART 1224,"I-94, EXIT 166",Bismarck,ND,273,3.61566666,6.4550149,3.4293056
52346,QUARLES #4436,"I-695, EXIT 41 & SR-151",Dundalk                                 ,MD,22,3.699,38.9123566,-76.9371685
52348,SHELL,"I-75, EXIT47 & SR-85",Detroit,MI,325,3.699,-25.2864234,-57.5711678
52364,PILOT TRAVEL CENTERS #335,"I-20 & SR-137, EXIT 138",Rayville,LA,760,3.21233333,43.1217027,-71.4807373
52367,DOSWELL TRUCK STOP,"I-95, EXIT 98 & SR-30",Doswell,VA,180,2.899,37.8473324,-77.4497658
52383,FLYING J TRAVEL PLAZA #601,"I-20/I-59, EXIT 104",Mc Calla,AL,615,3.17066666,44.4710928,-93.2946643
52384,PILOT TRAVEL CENTERS #337,"I-95, EXIT 164 & US-52",Florence,SC,46,3.349,43.1217027,-71.4807373
52385,Flying J Travel Plaza #696,"I-71, EXIT 131",Sunbury,OH,315,3.719,35.0793683,-106.7457342
52387,MARATHON,"I-55, EXIT 265 & SR-4",Senatobia,MS,435,3.199,44.8914036,-89.7748098
52388,FLYING J TRAVEL PLAZA #711,"I-85, EXIT 102",Blacksburg,SC,46,3.429,44.4710928,-93.2946643
52393,CASEYS #3004,SR-15 & CR-52,Truman,MN,425,3.299,36.0745365,-78.5871611
52400,PILOT TRAVEL CENTERS #324,"I-94/US-41, EXIT 329",Franksville,WI,444,3.889,43.1217027,-71.4807373
52401,LOVES TRAVEL STOP #267,"I-40, EXIT 107 & SR-95",Morrilton,AR,695,3.36066666,41.5092474,-112.0537895
52402,FLYING J TRAVEL PLAZA #665,"I-20, EXIT 3 & SR-79",Greenwood,LA,745,3.14566666,44.4710928,-93.2946643
52403,FLYING J TRAVEL PLAZA #676,"I-10, EXIT 31",Gulfport,MS,733,3.14566666,44.4710928,-93.2946643
52404,PETRO WELLS,"I-80, EXIT 352",Wells,NV,835,3.73233333,41.1002021,-114.9547226
52405,FLYING J TRAVEL PLAZA #636,"I-80, EXIT 292",Davenport                               ,IA,270,3.87233333,44.4710928,-93.2946643
52411,SAPP BROS TRAVEL CENTER,"I-215, EXIT 21",Salt Lake City,UT,835,3.399,41.366671,-89.1521604
52413,PILOT TRAVEL CENTERS #360,"I-75 & SR-613, EXIT 164",Findlay                                 ,OH,411,3.31566666,36.6751074,-78.926771
52421,SHEETZ #194,"I-80, EXIT 97",Falls Creek,PA,14,3.30733333,40.4223171,-86.9121012
52422,KWIK TRIP #674,"I-94, EXIT 45 & US-12/SR-29",Menomonie,WI,295,3.499,44.0587262,-92.5278462
52426,J MART #322,"I-65, EXIT 322",Falkville,AL,615,3.199,10.366667,34.2
52427,PILOT TRAVEL CENTERS #340,"I-80, EXIT 46",Fernley,NV,966,3.91566666,43.1217027,-71.4807373
52428,PILOT TRAVEL CENTERS #338,"I-26, EXIT 115 & US-321",West Columbia,SC,135,3.499,43.1217027,-71.4807373
52430,CHEVRON FOOD MART,"I-75, EXIT 350 & SR-2",Ringgold,GA,285,2.859,33.8233317,-84.3667319
52438,NEW MADRID,"I-55, EXIT 52/SR-P",New Madrid,MO,275,3.269,36.5749606,-89.6780945
52439,CIRCLE K #2723395,US-11,Hattiesburg,MS,620,3.199,30.1755249,-85.6243147
52441,PILOT #6990,"I-95, EXIT 106",Kenly,NC,205,3.709,36.9011719,-87.3888117
52450,PILOT #1290,"I-35, EXIT 410 & US-77",Red Oak,TX,630,3.299,36.0999256,-80.2596082
52454,PILOT TRAVEL CENTERS #6,"I-70, EXIT 178 & SR-209",Cambridge,OH,315,3.509,39.1124554,-108.6476143
52455,LOVES TRAVEL STOP #266,"I-35, EXIT 32",Ardmore,OK,253,3.649,41.5092474,-112.0537895
52456,PILOT TRAVEL CENTERS #317,"I-44, EXIT 4 (ST 435)",Joplin,MO,277,3.41233333,43.1217027,-71.4807373
52458,PILOT TRAVEL CENTERS #332,"I-40, EXIT 161 & SR-391",North Little Rock,AR,695,3.239,43.1217027,-71.4807373
52461,FLORENCE VALERO,US-130,Burlington                              ,NJ,160,3.13566666,33.9748474,-118.2841615
52463,PILOT TRAVEL CENTERS #341,"I-15, EXIT 48",North Las Vegas,NV,910,3.69566666,36.108812,-83.3385866
52464,7-ELEVEN #40118,ST 220 & I-180,Muncy,PA,138,4.359,35.7282402,128.4521195
52465,FLYING J TRAVEL PLAZA #605,"I-40, EXIT 84",Russellville,AR,695,3.369,44.4710928,-93.2946643
52466,FLYING J TRAVEL PLAZA #784,"I-95, EXIT 100 & SR-272",North East,MD,22,4.199,35.0793683,-106.7457342
52467,FLYING J TRAVEL PLAZA #712,"I-20, EXIT 70",Columbia,SC,135,3.43233333,44.4710928,-93.2946643
52468,FLYING J TRAVEL PLAZA #703,"I-40, EXIT 140",Oklahoma City,OK,483,3.309,30.8118225,-97.6109688
52470,QUIKTRIP #562,"I-80, EXIT 136",Des Moines,IA,320,3.04733333,36.0891156,-95.9573049
52471,FLYING J TRAVEL PLAZA #695,"I-75, EXIT 135",Beaverdam,OH,411,3.33066666,44.4710928,-93.2946643
52472,FLYING J TRAVEL PLAZA #708,"I-81, EXIT 52",Carlisle,PA,70,4.109,44.4710928,-93.2946643
52473,FLYING J TRAVEL PLAZA #743,"I-15, EXIT 222",Nephi,UT,835,3.71566666,44.4710928,-93.2946643
52477,PETRO FARGO #361,"I-94, EXIT 348",Fargo,ND,341,3.499,46.8497133,-96.8649604
52478,LOVES TRAVEL STOP #418,"I-64, EXIT 172",Grayson,KY,255,3.75566666,41.5092474,-112.0537895
52479,PETRO CARNESVILLE #377,"I-85, EXIT 160",Carnesville,GA,16,3.154,34.3499206,-83.3212945
52480,LOVES TRAVEL STOP #268,US6-9 & US-75,Atoka,OK,253,3.489,41.5092474,-112.0537895
52482,KING TRAVEL PLAZA,"I-95, EXIT 6",Kingsland,GA,75,3.109,30.8453779,-81.6760637
52483,FLYING J TRAVEL PLAZA #659,"I-70, EXIT 253",Salina,KS,523,3.77233333,30.8118225,-97.6109688
52484,KWIK STAR #303,"I-80, EXIT 201 & US-21",Brooklyn,IA,380,3.129,42.4620622,-92.2976419
52510,Valero,SR-9,Maysville                               ,KY,312,3.599,40.5347585,-5.9419416
52511,JOES JUNCTION #9,"I-65, RAYMOND EXIT",Indianapolis,IN,375,3.459,39.6563785,-102.6788174
52513,FLYING J TRAVEL PLAZA #678,"I-20 & I-55, EXIT 47",Pearl,MS,760,3.149,35.0793683,-106.7457342
52514,FLYING J TRAVEL PLAZA #671,"I-55, EXIT 58",Matthews,MO,275,3.239,44.4710928,-93.2946643
52516,FLYING J TRAVEL PLAZA #612,"I-40, EXIT 255",Winslow,AZ,930,3.624,44.4710928,-93.2946643
52527,PETRO STOPPING CENTER #323,"I-75, EXIT 368",Reddick,FL,225,3.35233333,35.1810309,-107.9038246
52528,QUIKTRIP #150,"I-70, EXIT 28",Oak Grove,MO,400,2.959,38.8531117,-94.3787193
52535,PWI #115,"I-45, EXIT 178",Buffalo,TX,765,2.899,-6.2336662,106.8866389
52539,PILOT TRAVEL CENTERS #331,"I-285 , EXIT 51",Atlanta,GA,18,3.599,35.2807468,-93.0927555
52542,FLYING J TRAVEL PLAZA #624,"I-75, EXIT 285 & SR-52",San Antonio,FL,225,3.599,44.4710928,-93.2946643
52546,CIRCLE K #2723910,US-84 & US-27,Bainbridge,GA,20,3.599,30.1755249,-85.6243147
52549,SPEEDWAY #3328,"I-77, EXIT 159 A",Cleveland,OH,305,3.799,33.9780164,-118.4654047
52550,PILOT TRAVEL CENTERS #404,"I-24, EXIT 81 SE",Murfreesboro,TN,460,3.47233333,43.1217027,-71.4807373
52551,PILOT TRAVEL CENTERS #374,"I-10, EXIT 142 & SR-71",Marianna,FL,20,3.599,39.6934074,-86.1906133
52552,FLYING J TRAVEL PLAZA #672,"I-49/US-71, EXIT167 & CR-J",Peculiar,MO,400,3.42233333,35.0793683,-106.7457342
52553,FLYING J TRAVEL PLAZA #689,"I-40, EXIT 153",Albuquerque,NM,580,3.549,35.0793683,-106.7457342
52558,LOVES TRAVEL STOP #271,"I-40, EXIT 37 & US-219",Ozark,AR,695,3.39233333,41.5092474,-112.0537895
52562,MOBIL,"I-87, EXIT 36                 ",Plattsburgh                             ,NY,39,3.799,52.4920032,13.4868744
52563,FLYING J TRAVEL PLAZA #631,"I-75, EXIT 2",Lake Park,GA,20,3.32233333,44.4710928,-93.2946643
52564,FLYING J TRAVEL PLAZA #669,"I-44, EXIT 11A & US-71/SR-249 & SR-FF",Joplin,MO,277,3.41233333,35.0793683,-106.7457342
52565,PILOT TRAVEL CENTERS #377,"I-35, EXIT 13",Laredo,TX,693,3.599,30.5057281,-99.7764561
52566,YUMM,"I-35, EXIT 8",Laredo,TX,598,2.87566666,59.9454192,30.482709
52575,PILOT TRAVEL CENTERS #775,"I-15, EXIT 4",Saint George,UT,910,3.67566666,39.6934074,-86.1906133
52577,PILOT TRAVEL CENTER #329,"I-29 & I-80, EXIT 1B",Council Bluffs,IA,319,3.659,29.8003085,-95.2671692
52580,LOVES TRAVEL STOP #405,"I-95, EXIT 29",Brunswick,GA,75,3.321,41.5092474,-112.0537895
52587,PILOT TRAVEL CENTERS #380,"I-81, EXIT 25 & I-90, EXIT 36",Liverpool,NY,220,4.159,43.1217027,-71.4807373
52588,STRIPES #42564,US-87,Lubbock,TX,700,3.199,52.437075,-6.9618733
52590,FLYING J TRAVEL PLAZA #661,"I-65, EXIT 2 & US-31W",Franklin,KY,415,3.169,35.0793683,-106.7457342
52591,FLYING J TRAVEL PLAZA #749,"I-95, EXIT 104",Ruther Glen,VA,180,3.619,35.0793683,-106.7457342
52594,PILOT TRAVEL CENTERS #348,"I-70, EXIT 32B",Bentleyville,PA,165,4.109,39.6934074,-86.1906133
52601,LOVES TRAVEL STOP #236,"I-40, EXIT 161 & SR-391",North Little Rock,AR,695,3.22066666,41.5092474,-112.0537895
52603,CASEYS #3364,US-281 & SR-200,Carrington,ND,341,3.439,33.6811981,-86.7195436
52605,PILOT TRAVEL CENTER #39,"I-57, EXIT 335",Monee,IL,290,3.559,40.3516409,-76.716432
52607,PILOT TRAVEL CENTERS #409,"I-40, EXIT 172",Dickson                                 ,TN,460,3.19233333,43.1217027,-71.4807373
52608,PILOT #7971,"I-40, EXIT 133",Conover,NC,46,3.699,47.6194152,-117.5218476
52611,STRIPES #40530,SR-239,Del Rio,TX,740,3.229,52.437075,-6.9618733
52615,PILOT TRAVEL CENTERS #4,"I-90, EXIT 151",Avon,OH,305,3.879,34.6199973,-89.952981
52616,PILOT TRAVEL CENTER #28,I-69 EXIT 234,Daleville,IN,457,3.649,40.9597837,-80.6604135
52618,PILOT TRAVEL CENTERS #63,"I-85, EXIT 35",Piedmont,SC,30,3.22233333,30.4384218,-88.5284361
52620,GOODLAND 24/7 STORE,"I-70, EXIT 19",Goodland,KS,525,3.08733333,39.3262177,-101.7275506
52621,CORNER MARKET #111,"I-70, EXIT 27",Goodland,KS,525,3.059,64.147938,-21.9419726
52624,PILOT TRAVEL CENTERS #390,"I-84, EXIT 188 & US-395",Stanfield,OR,982,3.469,43.1217027,-71.4807373
52625,FLYING J TRAVEL PLAZA #673,"I-44, EXIT 226 & SR-85",Sullivan                                ,MO,540,3.324,30.8118225,-97.6109688
52626,FLYING J TRAVEL PLAZA #627,"I-95/SR-405, EXIT 29 & US-82/US-17/SR-25/SR-520",Brunswick,GA,75,3.39566666,44.4710928,-93.2946643
52630,PILOT TRAVEL CENTERS #386,"I-5, EXIT 263",Salem,OR,935,3.859,43.1217027,-71.4807373
52632,LOVES TRAVEL STOP #451,"I-65, EXIT 95 & CR-500",Whiteland,IN,375,3.949,41.5092474,-112.0537895
52634,PETRO STOPPING CENTER #362,"I-80, EXIT 353",York,NE,330,3.299,35.5845032,-78.1468483
52636,LOVES TRAVEL STOP #414,"I-64, EXIT 25B & US-41",Haubstadt,IN,340,3.949,41.5092474,-112.0537895
52644,ONE9 #058,"I-95, EXIT 180 & SR-48",Pleasant Hill                           ,NC,205,3.399,36.0607925,-79.6621722
52646,FLYING J TRAVEL PLAZA #619,"I-70, EXIT 285",Aurora,CO,800,3.39233333,30.8118225,-97.6109688
52647,FLYING J TRAVEL PLAZA #699,"I-70, EXIT 122",Millersport,OH,315,3.44566666,35.0793683,-106.7457342
52648,Stripes #42566,US-67 & SR-158,Ballinger,TX,612,3.05566666,52.437075,-6.9618733
52649,FLYING J TRAVEL PLAZA #623,"I-10, EXIT 192 & US-90",Midway,FL,20,3.799,44.4710928,-93.2946643
52652,PILOT TRAVEL CENTERS #47,"I-275, EXIT 129",Georgetown,KY,410,3.20566666,41.3953192,-88.421442
52656,TRAVELING TIGER CENTER,"I-10, EXIT 87",Sierra Blanca,TX,640,3.15566666,31.1697887,-105.6574411
52658,LOVES TRAVEL STOP #274,"I-40, EXIT 221 & SR-27",Okemah,OK,560,3.35566666,41.5092474,-112.0537895
52659,LOVES TRAVEL STOP #276,"I-10, EXIT 20",Lordsburg,NM,640,3.45733333,41.5092474,-112.0537895
52661,LOVES TRAVEL STOP #281,"I-35 WEST, EXIT 40",Fort Worth,TX,630,3.18733333,41.5092474,-112.0537895
52663,EXXON,"I-20/I-59, EXIT 17 & SR-28",Livingston,AL,705,2.979,33.0419332,-97.044021
52664,PETRO STOPPING CENTER #378,I-81 EXIT 178B,Pittston,PA,200,4.16566666,35.1810309,-107.9038246
52669,COLUMBIA TRUCK STOP,US-46,Columbia,NJ,115,3.079,42.3614691,-73.4278392
52674,FLYING J TRAVEL PLAZA #738,"I-20/FM707, EXIT 277",Tye,TX,575,3.124,35.0793683,-106.7457342
52676,PILOT TRAVEL CENTERS #336,"I-80, EXIT 97 & US-219",Du Bois,PA,14,4.034,43.1217027,-71.4807373
52679,LOVES TRAVEL STOP #404,"I-295, EXIT 56 & I-95, EXIT 7",Bordentown,NJ,150,3.979,41.5092474,-112.0537895
52683,PILOT TRAVEL CENTER #145,"I-40/US-71/US-62, EXIT 72 AND US-412",Springdale,AR,416,3.463,34.3885734,-83.2265002
52684,KWIK STAR #348,US-30/US-67,Clinton,IA,270,3.624,42.4620622,-92.2976419
52685,LOVES TRAVEL STOP #275,"I-40/US-63, EXIT 233 & SR-261",Palestine,AR,435,3.31566666,41.5092474,-112.0537895
52686,LOVES TRAVEL STOP #278,"I-40, EXIT 277",Joseph City,AZ,930,3.60733333,41.5092474,-112.0537895
52687,LOVES TRAVEL STOP #286,"I-10, EXIT 17",Quartzsite,AZ,930,3.949,41.5092474,-112.0537895
52690,LOVES TRAVEL STOP #415,"I-95 & OKEECHOBEE RD, EXIT 129",Fort Pierce,FL,95,3.50566666,41.5092474,-112.0537895
52691,PILOT TRAVEL CENTERS #312,"I-20/SR-402, EXIT 5 & SR-100",Tallapoosa,GA,18,3.449,43.1217027,-71.4807373
52692,PILOT TRAVEL CENTER #249,"I-70/I-55, EXIT 18 & SR-162",Troy                                    ,IL,540,3.699,43.1215756,-71.4808431
52697,FLYING J TRAVEL PLAZA #747,"I-15, EXIT 261",Springville                             ,UT,835,3.76566666,30.8118225,-97.6109688
60084,SUNSTOP #625,US-84,Ashford,AL,20,3.599,47.5220363,12.2579034
60106,SUNSTOP #619,US-84,Daleville,AL,720,3.399,47.5220363,12.2579034
60114,SUNSTOP #606,US-84/SR-167,Enterprise,AL,20,3.699,47.5220363,12.2579034
60206,TA EXPRESS #649,"I-25, EXIT 52",Walsenburg,CO,796,4.259,36.9398963,-77.7357787
60208,BERKSHIRE PETROLEUM,"I-91, EXIT 9",North Haven,CT,100,3.549,41.2963814,-72.7647905
60224,SUNSTOP #419,US-19,Camilla,GA,20,3.499,47.5220363,12.2579034
60226,CIRCLE K #2723903,US-82 & SR-520,Dawson,GA,20,3.499,30.1755249,-85.6243147
60229,96 TRAVEL PLAZA,"I-16, EXIT 24",Jeffersonville                          ,GA,85,3.399,45.494267,-94.1488695
60230,CIRCLE K #2745152,US-19,Pelham,GA,20,3.499,30.1755249,-85.6243147
60242,KWIK STAR #711,US-18/US-52,Monona,IA,565,3.624,42.4620622,-92.2976419
60243,PETRO MART,"I-29, EXIT 112",Onawa,IA,527,3.15733333,43.0682289,-87.9999817
60245,STINKER #74,"I-84, EXIT 137",Bliss,ID,785,3.634,42.9232835,-114.9454451
60248,METRO,"I-95, EXIT 12",Avenel                                  ,NJ,115,3.299,48.3936975,10.0191666
60250,ELIZABETH TRUCK STOP,"I-95, EXIT 13A & SR-81",Elizabethport,NJ,115,3.399,-33.9111176,25.6152168
60256,BOLLA MARKET,"I-84, EXIT 1",Montague,NJ,115,3.519,40.6946942,-73.9834566
60270,CHUCKLES #27,SR-57,Washington                              ,IN,340,3.339,41.6677943,-70.3959711
60273,24-7,"I-70, EXIT 53 & SR-25",Colby,KS,525,3.05566666,29.5603694,52.6139883
60313,WHITE MARSH TRUCK STOP,US-40,White Marsh                             ,MD,22,3.369,39.3969297,-76.4070915
60316,CIRCLE K #4707001,"I-95, EXIT 264 & SR-158",Sherman,ME,170,3.93233333,30.1755249,-85.6243147
60324,FUEL MART OF AMERICA,"I-75, EXIT 59",Detroit                                 ,MI,325,3.499,40.9880825,-75.144269
60326,SUNRISE CONVENIENCE STORE #29,"I-69, EXIT 184                ",Memphis                                 ,MI,325,3.559,42.714045,-82.5010106
60333,LAKESHORE BP,US-2,Manistique,MI,287,3.499,36.3128614,-83.3107122
60341,SNAPPY FOOD MART,ST 60,Tekonsha,MI,431,3.589,42.1061767,-84.992293
60342,True North #254,US-31 & SR-37,Traverse City,MI,456,3.789,41.5256434,-87.439858
60347,KWIK TRIP #875,"I-90, EXIT 157, BRIDGE ST ENTRANCE",Albert Lea,MN,515,3.324,44.0587262,-92.5278462
60372,FLYING W CONVENIENCE STORE,SR-96,Carthage                                ,MO,277,3.199,37.1917678,-94.2921094
60373,FLYING J #571,"I-57, EXIT 12 & US-60",Charleston,MO,490,3.559,38.790788,-112.0767312
60374,PILOT TRAVEL CENTERS #385,US-54 & SR-13,Collins                                 ,MO,416,3.49566666,35.2359127,-102.4289014
60379,FAST LANE #50,US-54/SR-19,Laddonia,MO,540,3.15733333,44.3079752,-69.7120032
60380,AMOCO,US-63/US-136,Lancaster,MO,320,3.249,33.4403296,-84.3229396
60383,CASEYS #4399,"I-70, EXIT 175",New Florence,MO,392,2.949,38.1552716,-90.5498502
60392,Kangaroo Crossing #1107,"I-20, EXIT 68 & SR-43",Pelahatchie,MS,705,3.199,-29.8895882,152.9002848
60416,MINUTEMAN FOOD MART #20,US-74 & US-76,Whiteville                              ,NC,245,3.46066666,34.8123687,-78.9872307
60434,ENRITE,US-9,Linden,NJ,79,3.34233333,40.6771641,-74.0901103
60461,TRUE NORTH #704,"I-75, EXIT 56A",Dayton                                  ,OH,317,3.799,-37.623744,144.9177936
60465,MOTOMART #4129,ST 309,Marion                                  ,OH,411,3.34233333,-41.2048701,174.9100961
60471,FUEL MART #701,"I-480/I-271, EXIT 23 & SR-8",Bedford,OH,305,3.529,6.7872246,79.9645654
60473,BELL STORES #50,ST 3,Wooster,OH,249,3.599,40.9724803,-82.1099971
60476,PETES #11,US-75,Dewey,OK,560,3.154,-38.1591794,176.3007235
60515,FLASH MARKET #302,SR-9 & SR-151,Pageland,SC,46,3.38566666,13.9202713,100.6851717
60516,ENMARKET #892,"I-95, EXIT 150",Harleyville,SC,195,3.399,32.5034463,-80.2968859
60519,CORNER PANTRY #25,US-14,Huron,SD,571,3.079,43.8403364,-103.2006025
60538,TEXACO #380031,ST 21W,Bryan,TX,765,3.399,21.2773974,-157.7057999
60539,SHELL,US-96 & SR-62/FM-1004,Buna,TX,610,3.10233333,-25.2864234,-57.5711678
60551,CIRCLE K #2744522,"I-30, EXIT 201  I-30 & SR-8",New Boston,TX,766,2.94233333,30.1755249,-85.6243147
60554,CEFCO #2070,"I-27, EXIT 49",Plainview,TX,700,2.83233333,30.1505952,-85.5916889
60565,CEFCO #2006,"I-40, EXIT 163",Shamrock,TX,585,3.099,30.1505952,-85.5916889
60589,RIVER COUNTRY PLAZA,"SR-29, EXIT 91",Cadott,WI,295,3.39733333,43.3084253,-3.0080443
60590,DARLINGTON MINI MART,SR-23 & SR-81,Darlington,WI,420,3.399,34.1757008,-80.0589218
60601,HOLIDAY STATIONSTORE #2746229,US-53/US-2,Superior,WI,545,3.339,61.1405592,-149.9512868
60635,EXXON ON THE RUN,US-62/US-412 & SR-126,Gassville                               ,AR,535,3.695,40.8284926,-74.0939307
60700,PWI #502,"I-70/US-40, EXIT 259",Golden,CO,800,3.199,-6.2336662,106.8866389
60707,REATA TRAVEL STOP,"I-76, EXIT 125",Sterling,CO,800,3.399,40.2620244,-103.7733639
60762,BP,US-1 & US-341,Baxley,GA,195,3.599,51.507825,-0.134197
60779,Marathon,US-129,Eatonton                                ,GA,85,3.399,44.8914036,-89.7748098
60781,JP PERRY,"I-75, EXIT 138",Perry                                   ,GA,85,3.08233333,34.7038396,135.5357307
60783,CIRCLE K #2723324,US-441/US-23/SR-15 & SR-17A/SR-385,Clarkesville,GA,16,3.439,30.1755249,-85.6243147
60787,MARATHON,"I-20, EXIT 11",Lithia Springs,GA,48,2.87233333,44.8914036,-89.7748098
60788,SPRINT FOODS #722,US-1/SR-4/SR-17 & SR-24,Louisville                              ,GA,85,4.099,33.4925283,-81.9709895
60791,MARATHON #9,"I-475, EXIT 1",Macon,GA,85,3.039,51.566978,4.6523512
60795,CIRCLE K #2745080,US-319/US-129/SR-90/SR-11,Ocilla,GA,10,3.62566666,30.1755249,-85.6243147
60797,EVANS FOOD MART,SR-20,Rome,GA,193,3.699,38.6229682,-83.7866169
60817,KWIK STAR #712,US-218 & SR-27,Janesville,IA,565,3.599,42.4620622,-92.2976419
60822,CASEYS #3639,US-18/US-52,Postville,IA,420,3.599,33.6719974,-84.2874623
60846,EXPRESS LANE #50,"I-88, EXIT 10",Hillsdale                               ,IL,270,3.699,44.4747541,-70.8586471
60857,RED ROOSTER TERMINAL,US-50/SR-250 & SR-130,Olney,IL,510,3.189,38.7135983,-88.0918027
60871,WENONA BP,"I-39/US-51, EXIT 35 & SR-17",Wenona                                  ,IL,280,3.499,41.0525331,-89.0503587
60881,GAS AND STUFF,"I-64, EXIT 118",Georgetown                              ,IN,415,3.799,-37.3866065,144.3231933
60890,JACK FLASH,I-57 EXIT 135,Farina,IL,510,3.099,38.5728732,-92.2697805
60913,J Mart #1,"HWY 50 E, HWY 83 N",Garden City,KS,525,3.529,5.8158276,100.4782264
60926,CENEX,US-36 & US-83,Oberlin,KS,525,3.159,44.0293367,-92.7589878
60958,NORTH WEST TRUCK STOP,US-90 & SR-3211,Franklin,LA,600,3.399,-26.1679635,26.1564283
60979,TOBACCO PLUS #5,"I-10, EXIT 4 & US-90",Vinton,LA,690,2.999,44.962613,-93.2371808
60989,Blandford Service Plaza Westbound,"I-90, EXIT MM29",Blandford,MA,215,3.919,42.1950205,-72.9322436
60993,GULF #5165,"I-90, EXIT 12",Framingham,MA,34,4.06566666,35.179412,-119.1600672
60997,GULF OIL #5035,I-90 MM 66.7,Ludlow,MA,215,3.914,45.1213908,9.2296659
60998,GULF OIL #5030,"I-90, EXIT 7",Ludlow,MA,215,3.909,45.1213908,9.2296659
61004,Applegreen,SR-15,Sturbridge,MA,215,3.999,51.6149434,-0.1010227
61021,WESTOVER GOOSE CREEK,US-13 & SR-673,Westover                                ,MD,194,3.259,38.0851105,-78.9506654
61028,MARATHON,"US-10, EXIT 137",Bay City,MI,260,3.259,44.8914036,-89.7748098
61032,MARATHON,US-10/US-127,Clare,MI,260,3.289,44.8914036,-89.7748098
61042,CITGO,"US-131, EXIT 44",Kalamazoo,MI,465,3.499,42.2279712,-83.1484553
61057,CIRCLE K #2746537,US-2 & US-41,Rapid River                             ,MI,360,3.499,30.1755249,-85.6243147
61063,PS Food Mart,I-69 EXIT 25,Tekonsha,MI,431,3.589,42.2665853,-85.2375354
61076,Holiday StationStore #2746408,"I-35, EXIT 129",Forest Lake,MN,448,3.399,61.1405592,-149.9512868
61080,CO-OP SERVICE,US-10 & CR-67,New York Mills,MN,250,3.499,50.9559681,-119.0725921
61090,Northdale Oil,US-59 & SR-1,Thief River Falls                       ,MN,355,3.239,47.7349325,-95.510711
61093,CIRCLE K #2746501,"I-90, EXIT 45 & SR-60",Worthington,MN,432,3.14233333,30.1755249,-85.6243147
61099,LOVES TRAVEL STOP #488,"I-55, EXIT 157 & SR-32",Bloomsdale,MO,540,3.38233333,41.5092474,-112.0537895
61102,FAST LANE #54,US-63,Columbia,MO,310,3.20733333,44.307999,-69.712046
61106,TEMP STOP #102,US-54 & SR-52,Eldon,MO,392,3.199,35.9791141,-83.8944175
61110,HB OF RANDOLPH,"I-435, EXIT 55B & SR-210",Kansas City,MO,400,3.149,43.9253287,-72.6659422
61111,Caseys #4540,"I-35, EXIT 40 & SR-116",Lathrop,MO,400,3.07566666,35.8155967,-81.5027493
61115,BREAK TIME #3071,US-24 & US-63,Moberly,MO,310,3.469,42.9409896,-81.3408026
61145,TEXACO,US-49 & US-98,Hattiesburg,MS,620,3.199,10.4048559,-75.5239034
61149,CEFCO #501,US-45,Lauderdale,MS,705,2.899,30.1505952,-85.5916889
61168,Blue Sky #717,US-72 & SR-15,Walnut,MS,435,3.099,32.613479,-97.1002233
61210,SHEETZ #548,US-29,Greensboro,NC,65,2.859,40.5760681,-76.940029
61266,CENEX CONVENIENCE STORE,US-2 & SR-19,Devils Lake,ND,355,3.249,44.2909148,-93.2675124
61269,FLYING J #489,"I-29, EXIT 138",Grand Forks,ND,341,3.61566666,38.7905304,-112.0775425
61271,MARATHON,"I-94, EXIT 292",Valley City,ND,341,3.499,44.8914036,-89.7748098
61292,ENRITE,"I-95, EXIT 14A",Jersey City,NJ,115,3.349,40.6771641,-74.0901103
61305,BP,US-130,Cranbury,NJ,150,3.14566666,51.507825,-0.134197
61312,BLUE STAR,US-202 & SR-31,Flemington                              ,NJ,115,3.399,29.4091123,-98.4955189
61333,46 GAS AND TRUCK STOP,US-46,Palisades Park,NJ,115,3.23566666,-27.5516418,28.8402218
61339,FUEL ONE,"I-78, EXIT 3 & US-22",Phillipsburg,NJ,79,3.359,40.6698213,-74.2017873
61357,KENT KWIK #501,US-70 & US-54,Alamogordo,NM,593,2.98233333,31.4878709,-100.468609
61409,104 STORE,SR-370/SR-104,Red Creek                               ,NY,220,3.799,27.6829417,85.34519
61453,CITGO,"I-475, EXIT 6",Maumee,OH,550,3.499,42.2279712,-83.1484553
61459,7-ELEVEN #40300,"I-76, EXIT 157",New Springfield,OH,165,3.53233333,3.0566639,101.5414233
61461,S&G,"I-280, EXIT 7                 ",Oregon                                  ,OH,550,3.599,59.3097476,18.0617378
61492,SPRINGER TRAVEL PLAZA,I-35 EXIT 40,Springer,OK,253,2.91566666,34.3032796,-97.1569754
61540,S&P Oil,US-13,Levittown,PA,160,3.81566666,9.7103653,99.9912245
61569,KWIK FILL #295,US-6 BUS,Warren,PA,240,4.699,42.953462,-78.8687221
61571,7-ELEVEN #40280,MILE MARKER 55 NE EXT PENN TPKE,Allentown,PA,90,3.589,16.846985,102.8548783
61595,CORNER MART 3338,"I-85, EXIT 44",Greenville,SC,30,2.907,-27.4587215,151.9584108
61596,HOT SPOT #2009,US-25/US-178 & SR-225,Greenwood,SC,30,2.939,40.2047142,44.531036
61597,SPINX #121,"I-85, EXIT 56",Greer,SC,30,3.16566666,33.5407733,-80.92339
61598,Shell,SR-41,Hemingway,SC,245,3.199,-25.2864234,-57.5711678
61599,HOT SPOT #2013,"I-26, EXIT 10",Inman,SC,210,3.149,-25.7888,28.30814
61605,HOT SPOT #2028,US-76/US-301,Marion,SC,63,2.999,37.1275968,-82.91655
61616,PILOT #4578,"I-77, EXIT 48 & SC-200",Winnsboro,SC,135,3.409,37.2999497,-80.0106421
61621,CUBBYS #401,"I-90 , EXIT 332 & SR-37",Mitchell,SD,530,3.149,35.4243113,-83.3210658
61625,PRARIE STOP,US-212 & SR-20,Watertown,SD,566,3.279,39.9215654,-88.2986826
61642,PILOT TRAVEL CENTERS #252,"I-35, EXIT 26",Kearney,MO,400,3.699,43.1217027,-71.4807373
61646,SHELL,"I-40, EXIT 35 & SR-59",Mason,TN,435,3.549,-25.2864234,-57.5711678
61656,PHILLIPS 66,US-51,Union City,TN,460,3.38233333,33.755657,-118.2714478
61660,MARATHON,"I-40, EXIT 108",Wildersville,TN,435,3.099,44.8914036,-89.7748098
61747,TEX-BEST #504,"I-35, EXIT 141",Von Ormy                                ,TX,740,3.15733333,32.0099343,-102.0754584
